id,name,god_0,god_1,god_2,city,addr,religion,reg_type,tel,principal,others,longitude,latitude
1746813,法蓮廟,普庵祖師,,,新竹市,新竹市北區福林里3鄰東大路二段375巷9號,佛教,正式登記,03-5315686,劉醇富,,120.961799621582,24.8188209533691
1746839,天成宮,明明上帝,,,新竹市,新竹市北區磐石里6鄰西大路643巷20號,一貫道,正式登記,03-5219409,陳薇郎,,120.957901000977,24.8096008300781
1746867,新興福德祠,福德正神,,,新竹市,新竹市北區舊社里4鄰鐵道路二段166巷47號,道教,正式登記,03-5310216,鄭正義,,120.972999572754,24.8212203979492
1746872,威德廟,三府王爺,,,基隆市,基隆市暖暖區八堵里第9鄰源遠路28巷16號,道教,正式登記,02-24573823,鄭怡信,,121.736602783203,25.1031398773193
1746884,台北協天宮,關聖帝君,,,臺北市,臺北市大同區斯文里大龍街89-1號,道教,補辦登記,02-25923987,黃志成,,121.516098022461,25.0671501159668
1746921,新竹市明福宮,玄天上帝,,,新竹市,新竹市北區竹光路124巷27-3號,道教,補辦登記,03-5439996,彭來成,,120.958801269531,24.8129997253418
1746947,萬士爺廟,有應公,,,新竹市,新竹市北區東大路三段377巷20號旁,道教,補辦登記,-0920111593,林再興,,120.942398071289,24.8362293243408
1746948,佑聖宮,玄天上帝,,,新竹市,新竹市北區康樂里公道五路5段195號,道教,正式登記,-0920111593,林再興,,120.944702148438,24.836540222168
1746976,民富福德宮,福德正神,,,新竹市,新竹市北區民富里5鄰延平路一段138巷52-1號,道教,補辦登記,03-5212079,王清明,,120.958198547363,24.8059406280518
1747001,長和宮,天上聖母,,,新竹市,新竹市北區長和里1鄰北門街135號,道教,正式登記,03-5267510,楊金土,,120.96369934082,24.8106899261475
1747002,代天府,五府千歲,,,新竹市,新竹市北區海濱里1鄰西濱路一段355號,道教,正式登記,03-5361597,彭德林,,120.930297851563,24.83909034729
1747003,北極殿,玄天上帝,,,新竹市,新竹市北區西雅里3鄰中山路344巷14-1號,道教,正式登記,03-5213574,張清樑,,120.959297180176,24.8016204833984
1747006,地藏庵,地藏王菩薩,,,基隆市,基隆市暖暖區八堵路1巷67之1號,佛教,補辦登記,02-24575840,蔡春香,,121.738700866699,25.1107501983643
1747055,新竹天凰宮,普庵祖師,,,新竹市,新竹市北區成功路192巷211-3號,佛教,補辦登記,03-5382353,鄭潮欽,,120.943901062012,24.8118896484375
1747080,境福宮,境主尊神,,,新竹市,新竹市北區士林里8鄰境福街197號,道教,正式登記,03-5315620,郭宗源,,120.959197998047,24.8202590942383
1747085,福德宮,福德正神,,,基隆市,基隆市暖暖區水源路36巷37之1號,道教,補辦登記,02-24573373,陳義隆,,121.733901977539,25.0957202911377
1747106,長和里聖媽廟,天上聖母,,,新竹市,新竹市北區長和里9鄰長和街37號,道教,正式登記,03-5232393,黃益國,,120.963302612305,24.8095607757568
1747107,富美宮,三府王爺,,,新竹市,新竹市北區南寮里5鄰東大路三段708巷6號,道教,正式登記,03-5363075,彭天祥,,120.937599182129,24.8409099578857
1747108,福林堂,普庵祖師,,,新竹市,新竹市北區福林里5鄰境福街216號,佛教,正式登記,03-5319382,許淑嬰,,120.959503173828,24.8206100463867
1747109,爵靈寺,普庵祖師,,,新竹市,新竹市北區舊社里10鄰湳雅街222號,佛教,正式登記,03-5317704,蘇景松,,120.975997924805,24.8221397399902
1747134,證善堂,釋迦牟尼佛,,,新竹市,新竹市北區興南里8鄰興南街25巷2弄4號,佛教,正式登記,03-5267929,周瑞淋,,120.963401794434,24.8009395599365
1747162,王先生廟,王先生,,,新竹市,新竹市北區古賢里3鄰東大路三段110巷15號,道教,補辦登記,03-5319866,李正明,,120.95580291748,24.831184387207
1747190,天公壇,玉皇大帝,,,新竹市,新竹市北區育英里6鄰中山路431巷36號,道教,正式登記,03-5228651,陳顯榮,,120.958602905273,24.7996997833252
1747191,長和福地福德宮,福德正神,,,新竹市,新竹市北區湳雅里28鄰湳雅街147巷51號,道教,正式登記,03-5228173,吳榮輝,,120.971702575684,24.8198890686035
1747196,暖暖聖道院,明明上帝,,,基隆市,基隆市暖暖區興隆街14之3號,一貫道,補辦登記,02-24579386,周猶龍,,121.749702453613,25.1061592102051
1747213,東連宮,玄天上帝,,,新竹市,新竹市北區成功路192巷191弄22號之1,道教,補辦登記,03-5258055,吳春吉,,120.947402954102,24.8116798400879
1747285,大橋頭福德廟,福德正神,,,臺北市,臺北市大同區迪化街二段22號,道教,正式登記,02-25529255,劉丁柱,,121.509498596191,25.0638809204102
1747456,香光山寺,釋迦牟尼佛,,,桃園市,桃園市大溪區福安里11鄰頭寮路276巷75之1號,佛教,正式登記,03-3873141,陳夏珠,,121.276496887207,24.8358192443848
1747457,妙法寺,釋迦牟尼佛,,,桃園市,桃園市大溪區永福里4鄰信義路649號,佛教,正式登記,03-3883152,周永林,,121.30827331543,24.8944644927979
1747461,宏明寺,釋迦牟尼佛,,,桃園市,桃園市中壢區中央里長江路11鄰93號,佛教,正式登記,03-4253849,郭文雄,,121.227958679199,24.9564647674561
1747464,三聖宮,保儀尊王,,,新北市,新北市平溪區靜安路二段274巷6號,道教,補辦登記,02-24951242,楊明仁,,121.728698730469,25.0225200653076
1747465,成安宮,"天上聖母,保儀大夫,三代祖師",,,新北市,新北市平溪區十分里十分街189號,道教,補辦登記,02-24958600,胡民樹,,121.777801513672,25.0442409515381
1747498,法主公廟,法主聖君,,,臺北市,臺北市大同區朝陽里南京西路344巷2號,道教,正式登記,02-25562964,陳麗玉,,121.509925842285,25.053783416748
1747499,台北慈光廟,朱府王爺,,,臺北市,臺北市內湖區民權東路六段206巷143弄113號,道教,補辦登記,02-27862800,謝添鑄,,121.613998413086,25.0653991699219
1747553,平光寺,釋迦牟尼佛,,,臺北市,臺北市大同區重慶里敦煌路78號,佛教,正式登記,02-25940479,性融,,121.517753601074,25.075662612915
1747559,八仙宮,李鐵拐,,,新北市,新北市三芝區新庄里番社后31之1號,道教,補辦登記,02-26360743,江振裕,,121.49829864502,25.2678298950195
1747560,北星真武寶殿,玄天上帝,,,新北市,新北市三芝區圓山村2坪頂52之3號,道教,補辦登記,02-26363906,黃詠湄,,121.546203613281,25.2216796875
1747564,南山觀音寺,普庵祖師,,,新北市,新北市中和區內南里興南路二段399巷140號之1,佛教,補辦登記,02-29428123,呂錦素,,121.499198913574,24.9738101959229
1747566,中壢興南福德祠,福德正神,,,桃園市,桃園市中壢區興南里12鄰慈惠二街43號,道教,補辦登記,03-4255334,林進財,,121.224029541016,24.9604682922363
1747569,五指山開基祖盤古廟,盤古爺,,,新竹縣,新竹縣北埔鄉外坪村六股8鄰12號,道教,正式登記,03-5803127,曾&#29726;騰,,121.09001159668,24.6420822143555
1747570,王禪老祖鬼谷仙師廟,王禪老祖,,,新竹縣,新竹縣北埔鄉埔尾村王禪老祖路1號,道教,正式登記,03-5805319,劉逢清,,121.044174194336,24.7139759063721
1747637,福德宮,福德正神,,,基隆市,基隆市七堵區華新一路133號,道教,補辦登記,02-24561745,黃錦地,,121.666053771973,25.1015396118164
1747644,龍山巖,普庵祖師,,,新北市,新北市三峽區五寮里五寮路180之1號,佛教,補辦登記,02-26729021,黃賢明,,121.354438781738,24.8715305328369
1747647,台北神德宮,福德正神,,,臺北市,臺北市中山區大佳里濱江街180巷13號,道教,補辦登記,02-25032358,李隆德,,121.54109954834,25.0714893341064
1747648,中嶽殿,地藏王菩薩,,,臺北市,臺北市中山區大佳里民族東路115號,道教,補辦登記,02-25054267,陳順傑,,121.538299560547,25.0683498382568
1747652,僑愛佛教講堂,釋迦牟尼佛,,,桃園市,桃園市大溪區仁善里介壽路238號,佛教,正式登記,03-3801956,許傳齡,,121.29174041748,24.919527053833
1747656,佛教居士林,釋迦牟尼佛,,,基隆市,基隆市仁愛區仁三路3巷2弄10號,佛教,正式登記,02-24243609,陳林程,,121.744903564453,25.1268196105957
1747669,舊社福德祠,福德正神,,,新竹市,新竹市北區舊社里7鄰湳雅街311巷2號,道教,正式登記,03-5338479,戴錦燦,,120.975997924805,24.8229808807373
1747689,中和中興福德宮,福德正神,,,新北市,新北市中和區中興街122之2號,道教,補辦登記,02-22478669,簡德旺,,121.499603271484,24.9931907653809
1747696,三峽龍天宮,瑤池金母,,,新北市,新北市三峽區溪北里17鄰介壽路三段200巷1號,道教,補辦登記,02-26743219,高萬成,,121.403442382813,24.9441261291504
1747697,天福道院,彌勒佛,,,新北市,新北市三峽區添福里添福215之4號,一貫道,補辦登記,02-26711924,王垂禾,,121.380401611328,24.8960609436035
1747698,地藏庵,地藏王菩薩,,,臺北市,臺北市中山區玉門街圓山里11號,佛教,正式登記,02-25977057,劉鄭巧華,,121.520599365234,25.0720500946045
1747699,大忠宮,延平郡王,,,臺北市,臺北市中山區劍潭里中山北路四段71巷2弄5號,佛教,正式登記,02-28856791,游騰泉,,121.526298522949,25.0804901123047
1747704,永福宮,福德正神,,,桃園市,桃園市大溪區19鄰仁和里士香街172號,道教,補辦登記,03-3894020,江如翠,,121.27449798584,24.8971996307373
1747737,福德宮,福德正神,,,基隆市,基隆市七堵區友二里華新二路110號邊,道教,補辦登記,02-24515632,詹春長,,121.663803100586,25.1233406066895
1747740,中和佛安宮,天上聖母,,,新北市,新北市中和區永和路199巷3號,道教,補辦登記,02-22405881,羅一郎,,121.496452331543,25.0065689086914
1747745,新北市三峽靈隱寺,濟公活佛,,,新北市,新北市三峽區竹崙里紫微南路11號,道教,補辦登記,02-26726676,董招賢,,121.425903320313,24.921049118042
1747748,慧日講堂,釋迦牟尼佛,,,臺北市,臺北市中山區朱崙街力行里36號,佛教,正式登記,02-27711417,陳裕焜,,121.541297912598,25.0499000549316
1747752,仁安宮,元帥爺,,,桃園市,桃園市大溪區康安里13鄰安和路1號,道教,正式登記,03-3888500,簡子嚴,,121.281005859375,24.8572998046875
1747753,雲山寺,藥師佛,,,新北市,新北市八里區米倉里牛寮埔8號,佛教,補辦登記,02-26106659,許向益,,121.434097290039,25.1416091918945
1747755,西雲寺,普庵祖師,,,新北市,新北市五股區成州里3鄰西雲路185巷3號,佛教,正式登記,02-22914392,陳坤桐,,121.445907592773,25.0966053009033
1747757,奠濟宮,開漳聖王,,,基隆市,基隆市仁愛區仁三路27之2號,道教,正式登記,02-24289266,謝文賢,,121.74324798584,25.1282234191895
1747758,太乙宮,三山國王,,,基隆市,基隆市仁愛區愛四路2巷30號,道教,補辦登記,02-24280073,張益銓,,121.743103027344,25.1274890899658
1747760,衜竹寺,普庵祖師,,,基隆市,基隆市七堵區華新二路150之2號,佛教,補辦登記,02-24511720,黃詩淵,,121.641441345215,25.1392059326172
1747761,瑪南里福興宮,福德正神,,,基隆市,基隆市七堵區瑪南里大華二路2之1號,道教,補辦登記,02-24561212,張景明,,121.69979095459,25.1008586883545
1747763,明德禪寺,普庵祖師,,,新北市,新北市中和區錦昌里圓通路367巷33弄36號,佛教,補辦登記,02-22466836,許經術,,121.495498657227,24.9848308563232
1747764,紫竹寺,普庵祖師,,,新北市,新北市中和區橫路里興南路3段91巷臨57號,道教,補辦登記,02-29460002,陳仕宏,,121.491600036621,24.9699802398682
1747770,準提寺,釋迦牟尼佛,,,新北市,新北市三峽區嘉添里白雞路100之8號,佛教,補辦登記,02-26743750,周翠娥,,121.393997192383,24.9008598327637
1747776,蓮座山觀音寺,普庵祖師,,,桃園市,桃園市大溪區康安里22鄰瑞安路2段48巷28號,佛教,正式登記,03-3885674,徐嵐輝,,121.281402587891,24.8714694976807
1747780,妙僊山聖慈宮,瑤池金母,,,新北市,新北市五股區民義路二段37號之34,道教,補辦登記,02-22931729,林文錡,,121.413101196289,25.1004390716553
1747785,金碧宮,天上聖母,,,臺北市,臺北市內湖區內湖里金龍路92號,道教,正式登記,02-27900849,賴吉雄,,121.591400146484,25.0852508544922
1747792,瑪陵坑南聖宮,天上聖母,,,基隆市,基隆市七堵區大華二路2之3號,道教,補辦登記,02-24551212,張瓏瀚,,121.699798583984,25.1008605957031
1747793,福德宮,福德正神,,,基隆市,基隆市七堵區瑪東里大同街52之1號邊,道教,補辦登記,02-24564256,李川,,121.693717956543,25.131383895874
1747794,七堵福德宮,福德正神,,,基隆市,基隆市七堵區富民里崇廉街11號,道教,正式登記,02-24568655,詹福榮,,121.715911865234,25.0991153717041
1747795,福德宮,福德正神,,,基隆市,基隆市七堵區華新二路122之1號旁,道教,補辦登記,02-24515632,詹春長,,121.648101806641,25.1277961730957
1747797,力行福德宮,福德正神,,,新北市,新北市中和區力行里圓通路162巷2弄2號,道教,補辦登記,02-22484646,林寬仁,,121.497299194336,24.9954795837402
1747809,修德寺,釋迦牟尼佛,,,桃園市,桃園市大溪區普濟路122號,佛教,正式登記,03-3883406,簡阿蘭,,121.285949707031,24.8864364624023
1747812,大龍峒福壽宮,福德正神,,,臺北市,臺北市大同區重慶里敦煌路2之1號,道教,補辦登記,02-25910340,陳源陽,,121.520797729492,25.0748996734619
1747813,龍雲寺,釋迦牟尼佛,,,臺北市,臺北市大同區景星里延平北路三段18巷1號,佛教,正式登記,02-25948980,王照文(釋明藹),,121.510704040527,25.0665626525879
1747862,樹人書院文昌祠,文昌帝君,,,臺北市,臺北市大同區老師里迪化街二段364巷14號,道教,正式登記,02-25992878,陳錫彰,,121.510009765625,25.0677585601807
1747863,內湖承天宮,天上聖母,,,臺北市,臺北市內湖區文湖街21巷93號,道教,正式登記,09-35025117,郭慶輝,,121.564697265625,25.0865497589111
1747866,台北太子宮無極聖殿,瑤池金母,,,新北市,新北市三芝區茂長里7鄰陳厝坑51號之2,道教,補辦登記,02-26365377,沈吉東,,121.520401000977,25.2479496002197
1747867,水口民主公王宮,民主公王爺,,,新北市,新北市三芝區新庄里新庄子59號之3,道教,補辦登記,02-26364096,江重光,,121.507598876953,25.2743492126465
1747884,鶴嶺天乙寺,濟公活佛,,,新北市,新北市五股區集福里天乙路129號,佛教,補辦登記,02-22912698,藍德鋆,,121.442199707031,25.1145191192627
1747891,福安宮,福德正神,,,基隆市,基隆市中正區中正路318巷11之1號,道教,補辦登記,02-24625163,陳宋萬定(逕予登),,121.761497497559,25.1422805786133
1747892,東山夫子宮,關聖帝君,,,基隆市,基隆市中正區正榮街110巷41號,道教,補辦登記,02-24625505,李泰雄,,121.764022827148,25.1433238983154
1747893,福忠宮,池府王爺,,,桃園市,桃園市大園區圳頭村古亭9鄰25號,道教,正式登記,03-3868776,劉傳德,,121.19953918457,25.0893115997314
1747894,廣安宮,開漳聖王,,,新北市,新北市金山區金包里街104號,道教,補辦登記,02-24983815,陳振基,,121.638313293457,25.2219142913818
1747895,天母三玉宮,神農大帝,,,臺北市,臺北市士林區天福里天母東路6號,道教,正式登記,02-28754000,莊千鑫,,121.530601501465,25.1180191040039
1747896,陽明山公館里關聖帝君廟,關聖帝君,,,臺北市,臺北市士林區永公路350巷55號1樓,道教,正式登記,02-28613090,葉進財,,121.565498352051,25.1240997314453
1747902,義勇祠,大眾爺,,,基隆市,基隆市安樂區安一路266巷76之8號,道教,補辦登記,02-24262125,郭宗山,,121.730201721191,25.1335792541504
1747908,水尾福德宮,福德正神,,,桃園市,桃園市中壢區水尾里新生路522-1號,道教,補辦登記,03-4342779,莊建成,,121.224006652832,24.9686965942383
1747945,瑪西里面桶寮福德宮,福德正神,,,基隆市,基隆市七堵區大華三路109之1號前約600公尺,道教,補辦登記,02-24563743,王和雄,,121.661590576172,25.1431121826172
1747947,湖山巖,普庵祖師,,,新北市,新北市中和區興南路2段261巷11號,道教,補辦登記,02-29441680,蘇發,,121.504058837891,24.9769630432129
1747954,三峽九龍萬億宮,天上聖母,,,新北市,新北市三峽區金圳里互圳頭7之1號,道教,補辦登記,02-26720426,蔡郭片,,121.37434387207,24.8897380828857
1747957,九府仙師廟,九府仙師,,,臺北市,臺北市中山區集英里民權西路70巷31、33號,道教,正式登記,02-25317349,李宗波,,121.519599914551,25.0630493164063
1747961,福山巖,清水祖師,,,桃園市,桃園市大溪區福山一路3號,道教,正式登記,03-3888235,楊賴傳,,121.265800476074,24.827579498291
1747965,三武宮,郭王爺,,,新竹縣,新竹縣芎林鄉文林村10鄰10號,道教,正式登記,03-5924166,魏劉茂興,,121.082397460938,24.7806301116943
1747977,天德堂,明明上帝,,,桃園市,桃園市中壢區忠福里14鄰南園二路98號,一貫道,補辦登記,03-4520378,廖永康,,121.231292724609,24.9719638824463
1747980,善覺寺,普庵祖師,,,新北市,新北市平溪區望古里灰窯24號,佛教,補辦登記,09-76255121,王巡,,121.762702941895,25.0189208984375
1747981,大香山觀音禪寺,普庵祖師,,,新北市,新北市平溪區薯榔里靜安路二段3巷29號,佛教,補辦登記,02-24951696,顧希珍,,121.704002380371,25.0212306976318
1747987,福興宮,福德正神,,,新北市,新北市五股區興珍里中興路一段151巷4號,道教,補辦登記,02-29887412,林義一,,121.464897155762,25.0733699798584
1747990,福昌宮,三山國王,,,新竹縣,新竹縣芎林鄉石潭村8鄰福昌街300巷1號,道教,正式登記,03-5928753,林政良,,121.100608825684,24.7486572265625
1747992,大覺寺,釋迦牟尼佛,,,新竹縣,新竹縣竹東鎮長春路一段167號,佛教,正式登記,03-5963646,釋永澄,,121.089500427246,24.7333011627197
1747997,天使宮,黃府王爺,,,基隆市,基隆市七堵區實踐路253巷19之1號,道教,補辦登記,02-24511220,謝柄寬,,121.676597595215,25.0870609283447
1748000,中和海山宮,天上聖母,,,新北市,新北市中和區嘉新里員山路327巷42號,道教,補辦登記,02-22217969,張禎祥,,121.480598449707,25.0018196105957
1748005,道家萬玄仙宗三清道院總院,三清道祖,,,新北市,新北市三峽區嘉添里白雞路40之5號,道教,補辦登記,02-86712253,李隆漢,,121.376098632813,24.9116992950439
1748006,得安宮,劉府王爺,,,新北市,新北市三峽區安坑里安坑105之1號,道教,補辦登記,02-26726698,洪兩全,,121.444412231445,24.9387626647949
1748012,瑞源宮,開漳聖王,,,桃園市,桃園市大溪區瑞源里石園路760巷100號,道教,正式登記,03-3809280,簡文德,,121.25252532959,24.8671894073486
1748016,督署宮(已拆除),裴先帥,,,新北市,新北市三重區崇德里9鄰仁愛街81號3樓,道教,正式登記,02-29755872,何素馨,,121.496055603027,25.0731353759766
1748017,無極金玉殿,玉皇大帝,,,新竹縣,新竹縣芎林鄉新鳳村倒別牛1鄰15號,道教,補辦登記,03-5922699,邱瑞國,,121.100563049316,24.7663421630859
1748018,下山月桃窩萬善祠,有應公,,,新竹縣,新竹縣芎林鄉下山村7鄰79號,道教,正式登記,03-5921599,謝木水,,121.057067871094,24.8108329772949
1748027,代天巡狩三王府陳池姜三府王爺,三府王爺,,,新北市,新北市三芝區店子里龜子山26之1號,道教,補辦登記,02-26371649,莊文松,,121.505401611328,25.21217918396
1748034,慈天宮,普庵祖師,,,新竹縣,新竹縣北埔鄉北埔村北埔街1號,佛教,正式登記,03-5801575,姜維經,,121.058448791504,24.6997394561768
1748076,北海天公廟,關聖帝君,,,新北市,新北市三芝區後厝里土地公坑61之5號,道教,補辦登記,02-26363508,鄭重信,,121.465103149414,25.2473392486572
1748106,瑪南里大埔福德宮,福德正神,,,基隆市,基隆市七堵區大華二路130號旁,道教,補辦登記,02-24563333,蘇戊長,,121.692230224609,25.1080894470215
1748107,福德宮,福德正神,,,基隆市,基隆市七堵區瑪東里大華二路190號前,道教,補辦登記,02-24562574,張清波,,121.687156677246,25.1111259460449
1748109,溥濟宮,保生大帝,,,新北市,新北市中和區福真里橋和路202號,道教,補辦登記,02-22452005,林炎埤,,121.49520111084,25.005880355835
1748119,天山靈寶寺,濟公活佛,,,桃園市,桃園市大溪區美華里金山路169巷66號,道教,補辦登記,03-3889729,吳德聖,,121.310203552246,24.8807792663574
1748122,福安宮,福德正神,,,新北市,新北市五股區更寮里更洲路47號之1,道教,補辦登記,02-29856396,陳天祥,,121.457298278809,25.0793704986572
1748123,五股靜修寺,普庵祖師,,,新北市,新北市五股區觀音里中直路15號之3,佛教,補辦登記,02-22911166,蔡李順,,121.424301147461,25.1118202209473
1748124,五股仙佛寺,釋迦牟尼佛,,,新北市,新北市五股區民義路一段220巷17之15號,佛教,補辦登記,02-82952117,陳受堯,,121.42749786377,25.0968494415283
1748125,永興宮,財神爺,,,桃園市,桃園市八德區榮興南路92之1號,道教,補辦登記,03-3775713,林健仁,,121.30598449707,24.9485092163086
1748138,長和福地福德宮,福德正神,,,新竹市,新竹市北區長和里愛文街26巷60號,道教,補辦登記,03-5228173,林金地,,120.962699890137,24.8102016448975
1748139,威靈宮,廣澤尊王,,,新竹市,新竹市北區新雅里13鄰成功路278號,道教,補辦登記,03-5246172,楊昔祥,,120.952003479004,24.811580657959
1748155,祠宇媽祖宮,天上聖母,,,臺北市,臺北市大同區延平里保安街49巷17號,道教,正式登記,02-25539978,莊家聲,,121.512252807617,25.0584716796875
1748163,集福宮福德爺,福德正神,,,新竹市,新竹市北區崇禮里6鄰中山路254號,道教,補辦登記,03-5229329,鄭錦洲,,120.962089538574,24.802640914917
1748196,太和宮,三官大帝,,,新竹縣,新竹縣關西鎮東興里大同路30號,道教,正式登記,03-5872216,羅吉信,,121.176811218262,24.7905082702637
1748200,上德宮,天上聖母,,,新北市,新北市坪林區上德村崩山坑10之1號,道教,補辦登記,02-26656895,黃宗盛,,121.69034576416,24.9485511779785
1748205,六堵嶺頭福德宮,福德正神,,,基隆市,基隆市七堵區工建路104巷67之2號,道教,補辦登記,02-24512770,許金信,,121.703598022461,25.0885791778564
1748206,福德宮,福德正神,,,基隆市,基隆市七堵區八德路26之3號,道教,補辦登記,02-24311815,歐聰明,,121.727272033691,25.111873626709
1748219,乾德宮,五府千歲,,,新竹市,新竹市北區水田里12鄰水田街50巷3-1號,道教,正式登記,03-5331871,陳志鴻,,120.966400146484,24.812780380249
1748220,冥漠公廟,有應公,,,新竹市,新竹市北區湳雅街174號,道教,正式登記,03-5310031,陳嘉萌,,120.974502563477,24.8209590911865
1748245,新竹都城隍廟,城隍爺,,,新竹市,新竹市北區中山里14鄰中山路75號,道教,正式登記,03-5223666,鄭來聖,,120.965896606445,24.8044891357422
1748246,軒轅教新竹黃帝神宮,軒轅黃帝,,,新竹市,新竹市北區新雅里5鄰和平路192號,道教,正式登記,03-5250341,王秀螺,,120.954399108887,24.8129806518555
1748271,南中宮,福德正神,,,新竹市,新竹市北區湳中里8鄰湳中街40巷40-7號,道教,補辦登記,03-5346632,洪進上,,120.966537475586,24.8215599060059
1748293,大覺寺,釋迦牟尼佛,,,桃園市,桃園市觀音區保生里5鄰濱海路保生段306巷155號,佛教,正式登記,03-4732570,黃鳳嬌,,121.048515319824,25.0187320709229
1748294,石橋復興宮,開漳聖王,,,桃園市,桃園市觀音區新興村4鄰26號,理教,補辦登記,03-4772318,陳俊宏,,121.090614318848,25.0063495635986
1748295,雲台山大羅金仙府,太上老君,,,新北市,新北市石碇區永定里蚯蚓坑19之2號,道教,補辦登記,02-26631111,周秀梅,,121.686798095703,25.0036506652832
1748298,新北市板橋區北天廟,玄天上帝,,,新北市,新北市板橋區振義里萬安街124巷4號,道教,補辦登記,02-29618737,楊勝興,,121.484001159668,25.0248603820801
1748305,道玄宮,太上老君,,,基隆市,基隆市信義區壽山路10號,道教,正式登記,02-24228393,簡紹林,,121.75227355957,25.1333618164063
1748322,水仙宮,水仙尊王,,,新竹市,新竹市北區長和里1鄰北門街135號,道教,正式登記,03-5267510,楊金土,,120.96369934082,24.8106899261475
1748323,修德寺,釋迦牟尼佛,,,新竹市,新竹市北區育英里6鄰中山路431巷34弄1號,佛教,正式登記,03-5251557,郭淑琴,,120.958702087402,24.7999897003174
1748324,寄靈菴廟,有應公,,,新竹市,新竹市北區舊社里7鄰湳雅街351號,道教,正式登記,03-5315355,黃文忠,,120.977195739746,24.8232479095459
1748328,暖暖安德宮,天上聖母,,,基隆市,基隆市暖暖區暖暖里第2鄰暖暖街63號,道教,正式登記,02-24575692,鄭怡信,,121.73860168457,25.1011695861816
1748350,八卦福德宮,福德正神,,,新竹市,新竹市北區湳雅里2鄰東大路二段446巷271弄28號,道教,補辦登記,03-5422313,張慶順,,120.961097717285,24.8203506469727
1748379,七伍宮,七府王爺,,,新竹市,新竹市北區古賢里3鄰東大路三段110巷2弄1號,道教,補辦登記,03-5335339,王泰山,,120.956199645996,24.8296394348145
1748380,潛園里福德宮,福德正神,,,新竹市,新竹市東區潛園里西大路469巷17號,道教,正式登記,03-5331819,柳宗義,,120.965202331543,24.8021907806396
1748405,北辰宮,福德正神,,,新竹市,新竹市北區仁德里4鄰北大路249號,道教,正式登記,03-5223590,李清木,,120.964302062988,24.8072891235352
1748432,和平福德宮,福德正神,,,新竹市,新竹市北區磐石里7鄰磐石路28號,道教,正式登記,03-5240095,張蔡淑珠,,120.957000732422,24.8089408874512
1748433,聖媽廟,天上聖母,,,新竹市,新竹市北區西門里7鄰江山街6-13號,道教,正式登記,03-5260099,曾再霖(代理),,120.964622497559,24.8053092956543
1748556,北門口福聚宮,福德正神,,,臺北市,臺北市大同區玉泉里延平北路1段68號,道教,正式登記,02-25550051,陳正賢,,121.511810302734,25.0516242980957
1748593,新竹崙仔受天宮,玄天上帝,,,新竹市,新竹市北區愛文街106-6號,道教,補辦登記,03-5232988,黃坤隆,,120.962303161621,24.8093795776367
1748613,聖母宮,天上聖母,,,基隆市,基隆市七堵區堵南里長安街245巷29號,道教,補辦登記,02-24511632,余明忠,,121.696029663086,25.0753364562988
1748616,圓明慈惠堂,瑤池金母,,,新北市,新北市中和區吉興里15鄰南山路315巷12號,道教,補辦登記,02-29416100,林雪子,,121.504898071289,24.9919109344482
1748623,板橋慈惠堂,瑤池金母,,,新北市,新北市三峽區嘉添里白雞路33之47號,道教,補辦登記,02-26730801,楊秀雪,,121.371002197266,24.9127407073975
1748624,佛國寺,釋迦牟尼佛,,,新北市,新北市三峽區成福里成福路315巷21號,佛教,補辦登記,02-26681482,許雪娥,,121.428001403809,24.9236392974854
1748629,桃園市大溪區永安宮,三官大帝,,,桃園市,桃園市大溪區瑞興里8鄰大鶯路870巷5號,道教,正式登記,03-3801239,林繼雄,,121.301803588867,24.9187107086182
1748630,慈聖宮,天上聖母,,,桃園市,桃園市大溪區美華里美山路1段12鄰693巷49號,道教,補辦登記,03-3886432,蔡水木,,121.30069732666,24.8738594055176
1748640,月眉山觀音寺,普庵祖師,,,桃園市,桃園市大溪區大溪區月眉里15鄰月眉路1號,佛教,補辦登記,03-3881746,李戶峯,,121.28630065918,24.8877201080322
1748645,妙音寺,釋迦牟尼佛,,,桃園市,桃園市中壢區內定里合圳北路2段5鄰470號,佛教,正式登記,03-4531778,游蘭蕾,,121.247276306152,25.0060768127441
1748648,普陀山慈航宮,普庵祖師,,,新北市,新北市石門區乾華里阿里磅88號之1,道教,補辦登記,02-26380519,江炎泉,,121.744400024414,25.0433692932129
1748652,財團法人台北行天宮北投分宮,關聖帝君,,,臺北市,臺北市北投區中央北路四段18巷50號,道教,正式登記,02-28912731,吳岳羽,,121.477699279785,25.1366806030273
1748672,廣天寺,釋迦牟尼佛,,,桃園市,桃園市中壢區青埔里7鄰55號,佛教,正式登記,03-4531610,李文鈺,,121.21849822998,25.0149402618408
1748688,福源宮,福德正神,,,基隆市,基隆市七堵區友一里華新一路107之5號,道教,補辦登記,02-24516934,黃文進,,121.665733337402,25.09934425354
1748689,自強里水尾福德廟,福德正神,,,基隆市,基隆市七堵區自強里大華一路123號旁,道教,補辦登記,02-24569686,張燈錄,,121.712425231934,25.1012592315674
1748692,聖安慈惠堂,瑤池金母,,,基隆市,基隆市七堵區友二里14鄰華新二路112號,道教,補辦登記,02-24516161,吳麗霞,,121.664497375488,25.1229953765869
1748695,觀音禪院,普庵祖師,,,新北市,新北市中和區安樂里安樂路217巷22號,佛教,補辦登記,02-29421035,蕭金蘭,,121.513801574707,24.9985599517822
1748696,和美宮,福德正神,,,新北市,新北市中和區福祥里永和路66巷1之1號,道教,補辦登記,02-22438310,許全興,,121.498802185059,25.0045795440674
1748703,無極七玄宮,九天玄女,,,新北市,新北市三峽區鳶山里中山路459巷201號,道教,補辦登記,02-26746506,劉輦,,121.344802856445,24.9297790527344
1748704,普陀淨苑,釋迦牟尼佛,,,新北市,新北市三峽區溪東里溪東路233巷47弄2號,佛教,補辦登記,02-86768796,連阿惠,,121.407997131348,24.934419631958
1748711,三層福安宮,天上聖母,,,桃園市,桃園市大溪區福安里24鄰三層43號,道教,正式登記,03-3884767,林阿傳,,121.296714782715,24.8586235046387
1748718,廣福宮,福德正神,,,新北市,新北市中和區積穗里11鄰中山路三段63巷臨27號,道教,補辦登記,02-22211519,何雲坊,,121.476654052734,25.0030841827393
1748719,保慶宮,福德正神,,,新北市,新北市中和區保平路326巷28號,道教,補辦登記,02-22498995,陳建行,,121.506202697754,25.004919052124
1748724,保儀宮,廣澤尊王,,,新北市,新北市三峽區安坑里安坑路38之7號,道教,補辦登記,02-26726169,翁利成,,121.454238891602,24.9320201873779
1748727,福正宮,福德正神,,,臺北市,臺北市中山區劍潭里中山北路4段67號,道教,正式登記,02-25925144,陳健智,,121.52449798584,25.0804290771484
1748731,齋明寺,普庵祖師,,,桃園市,桃園市大溪區光明里齋明街153號,佛教,正式登記,03-3801426,洪鴻榮,,121.274528503418,24.8890705108643
1748733,北源天山無極靈山宮,瑤池金母,,,新北市,新北市八里區長坑里長道坑36號之2,道教,補辦登記,02-86303247,洪店,,121.389137268066,25.1273326873779
1748735,新北市集福宮福德爺,福德正神,,,新北市,新北市五股區成德里天乙路14號,道教,補辦登記,02-82951212,林正盛,,121.44889831543,25.1030197143555
1748745,友蚋清水岩,清水祖師,,,基隆市,基隆市七堵區友一里華新一路39號,道教,正式登記,02-24515607,王高程,,121.66780090332,25.0908107757568
1748747,圓通禪寺,釋迦牟尼佛,,,新北市,新北市中和區錦昌里圓通路367巷64號,佛教,正式登記,02-22472350,蔡杏紋,,121.492698669434,24.9822902679443
1748748,中和協昇廟,玄天上帝,,,新北市,新北市中和區灰磘里員山路49號之5,道教,補辦登記,02-22238558,游丙丁,,121.480499267578,24.9915008544922
1748753,台北紫微天后宮,天上聖母,,,新北市,新北市三峽區竹崙里紫微南路50號,道教,補辦登記,02-26726400,劉燕耀,,121.422302246094,24.9089393615723
1748754,三峽福安宮,福德正神,,,新北市,新北市三峽區民權街32號,道教,補辦登記,02-26731091,黃宗祥,,121.369903564453,24.9341106414795
1748756,植福宮,福德正神,,,臺北市,臺北市中山區成功里北安路608巷14弄1號,道教,補辦登記,02-25323316,陳志堂,,121.550598144531,25.0817794799805
1748759,福德宮,福德正神,,,桃園市,桃園市大溪區大鶯路1566之1號,道教,正式登記,03-3076599,沈龍飛,,121.318786621094,24.9302158355713
1748760,聚賢慈惠堂,瑤池金母,,,桃園市,桃園市大溪區復興里復興路2段318號,道教,補辦登記,03-3884303,李賢生,,121.31169128418,24.8258361816406
1748762,明園大佛寺,釋迦牟尼佛,,,新北市,新北市八里區米倉里牛寮埔1號,佛教,補辦登記,02-26182525,徐蔡靜江,,121.436302185059,25.1486206054688
1748764,瞿公真人廟,瞿公真人,,,臺北市,臺北市大同區建功里天水路49-1號,道教,正式登記,02-25586595,林程品,,121.512771606445,25.0529232025146
1748768,太陽堂,太陽星君,,,臺北市,臺北市內湖區碧山里碧山路2號,道教,正式登記,02-27909328,李根木,,121.591300964355,25.0866203308105
1748793,福德宮,福德正神,,,基隆市,基隆市仁愛區愛三路49巷9號,道教,正式登記,02-24257937,江陳麟,,121.742134094238,25.1280879974365
1748801,信天宮,玄天上帝,,,新北市,新北市三芝區店子里菜公坑97之1號,道教,補辦登記,02-26371011,蘇洺湫,,121.515197753906,25.20578956604
1748802,鳳舞慈惠宮,瑤池金母,,,桃園市,桃園市大溪區復興里3鄰復興路2段316巷39號,道教,補辦登記,03-3885910,李呂彩玉,,121.31298828125,24.8251895904541
1748807,元化院,釋迦牟尼佛,,,桃園市,桃園市中壢區中央里21鄰元化路205號,佛教,正式登記,03-4523341,徐瑞蟬,,121.22745513916,24.9606475830078
1748816,九天玄女宮,九天玄女,,,新北市,新北市五股區中直路崩山巷9之3號,道教,正式登記,02-22933177,馬黃敏婉,,121.419479370117,25.1218719482422
1748831,聖南寺,釋迦牟尼佛,,,新北市,新北市雙溪區牡丹里聖南30號,佛教,補辦登記,02-24933332,湯玉兒,,121.85710144043,25.0521793365479
1748832,三忠廟,文天祥,陸秀夫,張世傑,新北市,新北市雙溪區雙溪里長安街15號,道教,正式登記,02-24933327,連隆盛,,121.864700317383,25.0347595214844
1748833,雙溪聖龍宮,瑤池金母,,,新北市,新北市雙溪區外柑里10鄰三叉坑4之2號,道教,補辦登記,02-24934048,林宏茂,,121.824722290039,25.0136737823486
1748834,龍華山大觀寺,釋迦牟尼佛,,,新北市,新北市雙溪區三港里雙澳路35之1號,佛教,補辦登記,02-24934920,鄭松明,,121.868499755859,25.0513191223145
1748842,碧龍福德祠,福德正神,,,新竹縣,新竹縣芎林鄉石潭村5鄰,道教,補辦登記,03-5928753,李阿愆,,121.100769042969,24.7521991729736
1748854,普照山大同寺,普庵祖師,,,新北市,新北市三芝區店子里7鄰36號邊,佛教,補辦登記,02-26372118,鄭清波,,121.506202697754,25.2063007354736
1748855,福惠宮,三府王爺,,,新北市,新北市三芝區圓山里石曹子坑51號,道教,補辦登記,02-26371161,吳健功,,121.518997192383,25.2136192321777
1748858,北聖宮,天上聖母,,,新北市,新北市中和區板南路123之1號,道教,補辦登記,02-22474798,林進益,,121.501998901367,24.9924907684326
1748860,廣德堂,明明上帝,,,桃園市,桃園市中壢區東興里25鄰東興街117號,一貫道,正式登記,03-4575011,謝德財,,121.223991394043,24.9496078491211
1748863,觀音巖,普庵祖師,,,新北市,新北市平溪區公園街18號,佛教,補辦登記,02-24951292,林文喜,,121.734596252441,25.0247993469238
1748866,關渡萬善同公祠,地藏王菩薩,,,臺北市,臺北市北投區一德里中央北路4段583巷10弄26號,道教,補辦登記,02-28955147,林福真,,121.465698242188,25.1246395111084
1748870,寶纈禪寺,釋迦牟尼佛,,,新北市,新北市五股區集福里成泰路4段43號,佛教,正式登記,02-22911632,林美月,,121.456497192383,25.1117401123047
1748881,台北市松山五分埔福德宮,福德正神,,,臺北市,臺北市信義區虎林街四育里47之3號,道教,正式登記,02-27692247,陳永昌,,121.576698303223,25.0476493835449
1748884,埤墘福德宮,福德正神,,,新北市,新北市板橋區華江里莊敬路179號,道教,補辦登記,02-22521239,林朝枝,,121.471099853516,25.0237503051758
1748890,新北市烏來普陀山慈音精舍,普庵祖師,,,新北市,新北市烏來區烏來里西羅岸路122號之5,佛教,補辦登記,02-26616397,陳東鍠,,121.540000915527,24.8635807037354
1748892,松山慈惠堂,瑤池金母,,,臺北市,臺北市信義區中行里福德街251巷33號,道教,正式登記,02-27261735,李郭葉子,,121.587501525879,25.0365390777588
1748906,靈山禪林寺,釋迦牟尼佛,,,新北市,新北市石碇區永定里藤寮坑2號,佛教,補辦登記,02-23818827,釋秋焱,,121.702102661133,25.0089302062988
1748908,添福宮,福德正神,,,新北市,新北市汐止區茄苳里茄福街73巷8號,道教,補辦登記,02-86487124,廖豐文,,121.673301696777,25.066219329834
1748909,板橋庭天宮,關聖帝君,,,新北市,新北市板橋區浮洲里大觀路一段28巷26號,道教,補辦登記,02-29668964,林明田,,121.449996948242,25.009349822998
1748910,菩提院,釋迦牟尼佛,,,新北市,新北市板橋區漢生里光正街45巷17號,佛教,補辦登記,02-29657185,釋性定,,121.461700439453,25.016529083252
1748928,台北市文山區頂公館福德宮,福德正神,,,臺北市,臺北市文山區公館街44之1號,道教,補辦登記,02-29343086,許朝杉,,121.537696838379,25.0054492950439
1748932,天宇三三道合五化院母懿堂,瑤池金母,,,新北市,新北市汐止區汐萬路三段66號,道教,補辦登記,02-26431133,陳榮宗,,121.643997192383,25.0933494567871
1748933,聖德宮,瑤池金母,,,新北市,新北市汐止區勤進路193號,道教,補辦登記,02-26419933,王炎山,,121.665214538574,25.0542049407959
1748938,白雲福德宮,福德正神,,,新北市,新北市汐止區白雲里水源路二段34號對面,道教,補辦登記,02-26421023,陳錦順,,121.654800415039,25.0571193695068
1748949,三重玄帝宮,玄天上帝,,,新北市,新北市三重區重陽路三段5巷8弄47號旁,道教,補辦登記,02-29835265,王明達,,121.490196228027,25.0667705535889
1748950,龍雲宮,玄天上帝,,,新北市,新北市三重區永順里永安北路一段27巷58號旁,道教,補辦登記,02-22878704,余炳鑫,,121.478073120117,25.0756320953369
1748951,大眾爺,老大公,,,基隆市,基隆市中正區調和街301之106號,道教,補辦登記,02-24693042,張金土,,121.799102783203,25.1243896484375
1748952,聖平宮,中壇元帥,,,基隆市,基隆市中正區中正路656巷71弄30號之1,道教,補辦登記,02-24629458,吳文綜,,121.768600463867,25.1493091583252
1748953,福林宮,福德正神,,,基隆市,基隆市中正區環港街84號3樓,道教,補辦登記,02-24692364,蔡永源,,121.792602539063,25.1409797668457
1748954,福惠宮,大眾爺,,,基隆市,基隆市中正區八斗街122之1號,道教,補辦登記,02-24692614,許焜山,,121.796401977539,25.1434707641602
1748955,福德宮,福德正神,,,新北市,新北市金山區西湖村1鄰13號旁,道教,補辦登記,-,陸宜芳,,121.622657775879,25.2481956481934
1748975,台北霞海城隍廟,城隍爺,,,臺北市,臺北市大同區永樂里迪化街1段61號,道教,正式登記,02-25580346,陳文文,,121.510101318359,25.0556201934814
1748978,福德祠,福德正神,,,臺北市,臺北市內湖區康寧路1段236號,道教,正式登記,02-27900442,陳東源,,121.596199035645,25.0779991149902
1749005,東方寺,釋迦牟尼佛,,,臺北市,臺北市士林區公館里永公路245巷24號,佛教,正式登記,02-28616170,彭世珠,,121.55899810791,25.1231803894043
1749006,士林街福德宮,福德正神,,,臺北市,臺北市士林區義信里大南路138號,道教,正式登記,02-28819326,陳中和,,121.522903442383,25.0898609161377
1749010,鶯歌石萬善祠,福德正神,,,基隆市,基隆市安樂區樂利三街1之1號,道教,補辦登記,02-24312055,李財(逕予登,,121.717399597168,25.1290893554688
1749011,國家新城福德宮,福德正神,,,基隆市,基隆市安樂區樂利三街38巷13之4號,道教,補辦登記,02-24324239,戴勝雄,,121.713203430176,25.1265106201172
1749012,定國宮,天上聖母,,,基隆市,基隆市安樂區定國里定國街119巷65號,道教,補辦登記,02-24291933,廖龍雄,,121.731597900391,25.1353092193604
1749018,法藏寺,釋迦牟尼佛,,,臺北市,臺北市北投區溫泉路林泉里156號,佛教,正式登記,02-28912314,林珠,,121.513496398926,25.1394100189209
1749024,內湖公舘庄武身開漳聖王廟,開漳聖王,,,臺北市,臺北市內湖區內湖路3段256巷8號,道教,正式登記,02-27955342,林金榜,,121.586502075195,25.0913791656494
1749028,福德宮,福德正神,,,基隆市,基隆市七堵區東新街42之1號,道教,補辦登記,02-24564676,姚琴富,,121.719017028809,25.0946483612061
1749034,碧山巖開漳聖王廟,開漳聖王,,,臺北市,臺北市內湖區碧山里碧山路24號,道教,正式登記,02-27963755,林明脩,,121.587600708008,25.0973205566406
1749038,屏山天元宮,關聖帝君,,,新北市,新北市三芝區橫山56之2號,道教,補辦登記,02-26363837,陳淑貞,,121.53589630127,25.2537403106689
1749045,菩提禪寺,釋迦牟尼佛,,,基隆市,基隆市安樂區安一路100巷299號,佛教,正式登記,02-24225645,林美絹,,121.732597351074,25.1329708099365
1749061,中埔福德宮,福德正神,,,基隆市,基隆市七堵區實踐里實踐路61之1號,道教,補辦登記,02-24528137,蔡旺璉,,121.692687988281,25.0808448791504
1749062,七堵福安宮,福德正神,,,基隆市,基隆市七堵區明德一路258號,道教,正式登記,02-24561277,張世璿,,121.710296630859,25.0955905914307
1749063,草濫清水巖,清水祖師,,,基隆市,基隆市七堵區泰安里泰安路2巷10號,道教,補辦登記,02-24515515,李精江,,121.711128234863,25.0873851776123
1749064,潭墘樂墘宮,福德正神,,,新北市,新北市中和區安和里安平路99號,道教,補辦登記,02-89411342,呂芳齊,,121.511100769043,24.9969806671143
1749070,三峽廣行宮,關聖帝君,,,新北市,新北市三峽區龍埔里三樹路98巷187之1號,道教,補辦登記,02-26730131,黃騰霆,,121.385147094727,24.941915512085
1749071,金剛寺,阿彌陀佛,,,臺北市,臺北市中山區劍潭里中山北路4段71巷2弄臨3號,佛教,補辦登記,02-28851890,陳添益,,121.525901794434,25.0809192657471
1749076,萬聖堂,關聖帝君,,,桃園市,桃園市大溪區復興里環湖1段238巷57號,道教,補辦登記,03-4112137,曾振達,,121.261108398438,24.8087482452393
1749077,復興宮,開漳聖王,,,桃園市,桃園市大溪區復興里復興路二段287巷15號,道教,正式登記,03-3888875,朱子明,,121.310302734375,24.8257808685303
1749078,紫皇天乙真慶宮,玄天上帝,,,新北市,新北市八里區舊城里中華路二段165巷33號,道教,正式登記,02-26104373,陳文清,,121.410697937012,25.1487598419189
1749079,台北五股坑朝天府,北府五王,,,新北市,新北市五股區民義里民義路一段255號之12,道教,補辦登記,02-22917458,翁水河,,121.426399230957,25.0909996032715
1749080,霄裡玉元宮,玉皇大帝,,,桃園市,桃園市八德區竹園里2鄰長興路756號,道教,正式登記,03-3652098,段樹文,,121.26439666748,24.9334506988525
1749092,青埔青昇宮,開漳聖王,,,桃園市,桃園市中壢區青埔里3鄰青溪路二段35號,道教,正式登記,03-4531673,林永貴,,121.222503662109,25.0156192779541
1749123,海會禪苑,釋迦牟尼佛,,,新竹市,新竹市東區光鎮里13鄰南大路748巷3弄2號,佛教,正式登記,03-5265686,陳米雲,,120.964797973633,24.7899208068848
1749138,靜修寺,燃燈佛,釋迦牟尼佛,彌勒佛,基隆市,基隆市七堵區華新二路97巷3號,佛教,正式登記,02-24512689,許瑜容,,121.664901733398,25.1034507751465
1749139,基隆六堵代天府,五府千歲,,,基隆市,基隆市七堵區工建路104巷17之5號,道教,補辦登記,02-29514239,詹汝,,121.702156066895,25.0908317565918
1749141,慈雲岩,普庵祖師,,,新北市,新北市中和區圓通路367巷66號,佛教,補辦登記,02-22473525,張月,,121.490798950195,24.9813194274902
1749146,大天府,玉皇大帝,,,新北市,新北市三峽區添福里7鄰添福207號,道教,補辦登記,02-26931690,詹文質,,121.38419342041,24.8923091888428
1749154,八里代天府奉天宮,五府千歲,,,新北市,新北市八里區米倉里米倉26之1號,道教,補辦登記,02-26181966,陳春長,,121.438903808594,25.1484107971191
1749156,三重安北宮,吳府千歲,,,新北市,新北市五股區五龍里民義路二段52巷27號之1,道教,補辦登記,02-22923726,謝明德,,121.410797119141,25.1135997772217
1749157,桃園八德指玄宮,孚佑帝君,,,桃園市,桃園市八德區指玄街66號,道教,正式登記,03-3669941,邱創漢,,121.309593200684,24.955207824707
1749158,天王宮,李靖托塔天王,,,基隆市,基隆市仁愛區復興街60巷85號,道教,補辦登記,02-24242817,呂黃阿珠,,121.751586914063,25.1244430541992
1749159,景山岩廟,神農大帝,,,基隆市,基隆市仁愛區南榮路231巷33之3號,道教,補辦登記,02-24286871,陳志興(已死亡),,121.743911743164,25.1214790344238
1749160,永勝慈惠堂,瑤池金母,,,新北市,新北市三重區國隆里大同北路54巷10號,道教,補辦登記,02-29832017,蘇來傳,,121.493797302246,25.063570022583
1749162,松湖宮,天上聖母,,,基隆市,基隆市中正區中正路182巷24之3號,道教,補辦登記,02-24260660,陳榮興,,121.755531311035,25.1383285522461
1749163,福泉庵,釋迦牟尼佛,,,基隆市,基隆市中正區新豐街12號,佛教,補辦登記,02-24621501,釋心嚴,,121.789031982422,25.1421203613281
1749164,仁德宮,天上聖母,,,桃園市,桃園市大園區田心村29鄰30號,道教,補辦登記,03-3866259,黃興隆,,121.196403503418,25.0576820373535
1749172,水濂洞梵音寺,釋迦牟尼佛,,,新竹縣,新竹縣峨眉鄉七星村14鄰61號,佛教,正式登記,03-5800862,陳源明,,121.025398254395,24.6548099517822
1749181,金龍聖殿,普庵祖師,,,新竹縣,新竹縣關西鎮錦山里12鄰錦山138號,道教,正式登記,03-5478787,蘇柏宇,,121.271614074707,24.7695636749268
1749185,清雲殿,神農大帝,,,新北市,新北市坪林區灣潭4號,道教,補辦登記,02-87126708,馮明祥,,121.676048278809,24.9319820404053
1749192,準提寺,準提菩薩,,,基隆市,基隆市安樂區安一路278巷62弄64號,佛教,正式登記,02-24225828,陳秀葉,,121.728996276855,25.1334705352783
1749228,寶明寺,釋迦牟尼佛,,,基隆市,基隆市仁愛區南榮路463巷36號,佛教,正式登記,02-24226627,何美玉,,121.746109008789,25.1160545349121
1749229,順安宮,福德正神,,,基隆市,基隆市仁愛區南榮路269巷28號,道教,正式登記,02-24245054,陳芳國(暫代),,121.743980407715,25.120454788208
1749235,天后宮,天上聖母,,,基隆市,基隆市中正區和一路84巷16號,道教,正式登記,02-24625061,賴澄龍,,121.766647338867,25.1555480957031
1749237,台北市士林區合誠宮,開漳聖王,,,臺北市,臺北市士林區平等里平菁街106巷6之1號,道教,正式登記,02-28616866,徐明忠,,121.575500488281,25.1275196075439
1749238,廣明寺,普庵祖師,,,臺北市,臺北市士林區延平北路６段社園里116巷13號,佛教,補辦登記,02-28127061,李悟和,,121.501197814941,25.0911903381348
1749258,福興宮,福德正神,,,臺北市,臺北市文山區福興路5號,道教,正式登記,02-29309628,高昌倫,,121.551399230957,25.0022602081299
1749263,應天宮,關聖帝君,,,桃園市,桃園市觀音區新興村7鄰16之10號,道教,補辦登記,03-4771242,溫福昭,,121.097396850586,25.0065288543701
1749265,無極天明宮,玉皇大帝,,,新北市,新北市石碇區格頭里北宜路五段火燒樟巷9之1號,道教,補辦登記,02-26651709,黃阿寬,,121.626449584961,24.9556369781494
1749268,宜興福德宮,福德正神,,,新北市,新北市汐止區宜興里林森街70號,道教,補辦登記,02-26603305,闕壯昇,,121.623001098633,25.0404891967773
1749276,明月寺,釋迦牟尼佛,,,基隆市,基隆市信義區仁一路7巷9弄18號,佛教,正式登記,02-24262080,李春福,,121.755699157715,25.1273002624512
1749286,關聖宮,關聖帝君,,,新竹縣,新竹縣新豐鄉員山村建興路一段202號,道教,正式登記,03-5594613,謝英旭,,120.994316101074,24.8828105926514
1749292,五台殿,大德禪師,,,基隆市,基隆市七堵區正光里自治街18鄰37號,道教,補辦登記,02-24565108,雷國清,,121.713684082031,25.0955543518066
1749295,南山慈惠堂,瑤池金母,,,新北市,新北市中和區內南里38鄰興南路二段399巷112號,道教,補辦登記,02-29425382,呂麗雪,,121.500518798828,24.9767761230469
1749300,台北佛教淨業林,阿彌陀佛,,,新北市,新北市三峽區介壽路2段138巷1弄168號,佛教,補辦登記,02-26712882,吳淑玲,,121.402603149414,24.9266395568848
1749301,隆恩埔福恩宮,福德正神,,,新北市,新北市三峽區隆恩街110巷17號,道教,補辦登記,-,陳正松,,121.365440368652,24.9472713470459
1749307,晧月精舍,阿彌陀佛,,,桃園市,桃園市大溪區美華里3鄰復興路1段39巷211弄60號,佛教,補辦登記,03-3889519,周玉英,,121.297500610352,24.8732795715332
1749310,洲子芳洲祠,福德正神,,,新北市,新北市五股區西雲路12巷1號之1,道教,補辦登記,02-22920501,陳永堅,,121.443099975586,25.090160369873
1749315,南天宮,三官大帝,,,新北市,新北市金山區五湖里南勢湖69號,道教,補辦登記,02-24982588,陳金城,,121.616798400879,25.2146091461182
1749316,淨光寺,釋迦牟尼佛,,,臺北市,臺北市士林區天母里中山北路7段190巷113之3號,佛教,正式登記,02-28718214,詹舜華,,121.537300109863,25.1280002593994
1749322,基隆市中山區協和宮,福德正神,天上聖母,,基隆市,基隆市中山區文化路10巷8之3號,道教,補辦登記,02-24289518,蔡佳富,,121.737075805664,25.1511707305908
1749323,福德宮,福德正神,,,基隆市,基隆市安樂區中崙里基金二路1巷8之1號,道教,補辦登記,02-24310272,吳伯宗(暫代),,121.702796936035,25.1425590515137
1749330,大雲碧仙寺,釋迦牟尼佛,,,桃園市,桃園市中壢區華勛里8鄰華勛街208巷38弄26號,佛教,補辦登記,03-4657973,吳德久,,121.259399414063,24.9489822387695
1749342,福興宮,福德正神,,,基隆市,基隆市中山區中華路69號,道教,補辦登記,02-24294870,陳仁傑,,121.738296508789,25.1465606689453
1749343,協安宮,五府千歲,,,基隆市,基隆市中山區協和街167之1號,道教,正式登記,02-24277672,童再添,,121.732803344727,25.1584091186523
1749352,北投天寶聖道宮,玉皇大帝,,,臺北市,臺北市北投區林泉里幽雅路杏林巷5之1號,道教,正式登記,02-28956003,陳科稦,,121.518898010254,25.1382503509521
1749353,福山巖顯應廟,顯應祖師,,,新北市,新北市汐止區福山里民權街2段121號,道教,補辦登記,02-26401827,林鴻坤,,121.618797302246,25.0463790893555
1749359,褒忠祠,義民,,,桃園市,桃園市平鎮區義民里14鄰復旦路2段23巷8號,道教,正式登記,03-4932246,宋隆虎,,121.205001831055,24.9473896026611
1749375,財團法人軒轅教,軒轅黃帝,,,臺北市,臺北市大同區歸綏街79號之6,軒轅教,正式登記,02-2388,熊芳信,,121.51668548584,25.0590438842773
1749386,五指山觀音寺,普庵祖師,,,新竹縣,新竹縣竹東鎮瑞峰里4鄰94號,佛教,正式登記,03-5801429,黃月星,,121.094100952148,24.6483192443848
1749393,霹靂宮,五雷元帥,,,新北市,新北市中和區中原里永和路514號,道教,補辦登記,02-22220989,廖江雄,,121.482398986816,25.0123100280762
1749399,武聖宮,關聖帝君,,,新北市,新北市三峽區中正路二段85號,道教,補辦登記,02-26735647,林友義,,121.366722106934,24.9178371429443
1749400,慈慧寺,燃燈佛,釋迦牟尼佛,彌勒佛,新北市,新北市三峽區添福里添福195之1號,佛教,補辦登記,02-26721550,林金蓮,,121.386703491211,24.8938808441162
1749402,新福宮,福德正神,,,臺北市,臺北市中山區中山里新生北路2段62巷33號,道教,正式登記,02-25631982,洪煌龍,,121.52619934082,25.0575294494629
1749406,和福宮,福德正神,,,桃園市,桃園市大溪區埔頂路一段410號,道教,補辦登記,03-3802836,李柏坊,,121.276260375977,24.9042224884033
1749407,忠魂堂,釋迦牟尼佛,,,桃園市,桃園市大溪區普濟路132號,佛教,正式登記,03-3882308,簡安申,,121.286483764648,24.8869934082031
1749408,南嶽宮,南嶽聖侯,,,新北市,新北市八里區下罟里下罟子臨8-3號,道教,補辦登記,02-26101139,鄭康忠,,121.388000488281,25.1417407989502
1749409,開臺天后宮,天上聖母,,,新北市,新北市八里區龍米路二段191號,道教,補辦登記,02-26108500,張金貴,,121.434097290039,25.1581993103027
1749425,法源講寺,釋迦牟尼佛,,,新竹市,新竹市東區高峰里17鄰高峰路236號,佛教,正式登記,03-5215302,葉秀月,,120.976501464844,24.7846908569336
1749429,新豐宮,三山國王,,,新竹縣,新竹縣寶山鄉新城村5鄰新湖路5段326號,道教,正式登記,03-5762056,彭鼎煌,,120.965896606445,24.7309055328369
1749446,楊公廟,楊府真人,,,新竹縣,新竹縣峨眉鄉富興村9鄰23-1號,道教,補辦登記,03-5806846,羅逢森,,120.980499267578,24.6876792907715
1749509,福德祠,福德正神,,,新竹縣,新竹縣新豐鄉福興村7鄰43號,道教,正式登記,03-5993949,范賢妹,,121.035194396973,24.9415950775146
1749510,普元宮,清府王爺,,,新竹縣,新竹縣新豐鄉坡頭村6鄰95之7號,道教,補辦登記,03-5680379,李錦珍,,120.977600097656,24.9249153137207
1749511,光淨寺,釋迦牟尼佛,,,臺北市,臺北市文山區興隆路4段1巷88號,佛教,補辦登記,02-29395086,張再綿,,121.558799743652,24.9878406524658
1749540,復興宮,開漳聖王,,,桃園市,桃園市觀音區樹林里16鄰35號,道教,補辦登記,03-4830783,鄧宗文,,121.128425598145,25.0605201721191
1749541,慈蓮苑,釋迦牟尼佛,,,新北市,新北市石碇區豐田里華梵路2號,佛教,補辦登記,02-26631505,王淑雲,,121.691596984863,24.9775905609131
1749544,一言精舍,釋迦牟尼佛,,,新北市,新北市板橋區光榮里光華街62.64號,佛教,補辦登記,02-29680802,劉育誌,,121.45369720459,25.0132293701172
1749545,鳳山寺,保儀尊王,,,新北市,新北市板橋區文翠里4鄰仁化街181號,佛教,正式登記,02-22515955,藍玉來,,121.478218078613,25.0337982177734
1749553,名山宮,福德正神,,,基隆市,基隆市信義區壽山路19之1號,道教,補辦登記,02-24259220,朱清景,,121.755279541016,25.1347198486328
1749554,靜修禪寺,普庵祖師,,,基隆市,基隆市信義區東信路258巷132號,佛教,補辦登記,02-24662191,鄭葉文,,121.76261138916,25.1315517425537
1749559,啟化講堂,明明上帝,,,基隆市,基隆市仁愛區獅球路48巷174號,一貫道,正式登記,02-24334972,高遂鳳,,121.734497070313,25.1224594116211
1749565,富文宮,三府王爺,,,桃園市,桃園市大園區北港里10鄰潮音二路190號,道教,正式登記,03-3861424,許阿鐘,,121.16926574707,25.0769519805908
1749570,智成堂,關聖帝君,,,新北市,新北市三芝區錫板里海尾17號,道教,正式登記,02-26362557,楊邱美雲,,121.478996276855,25.2569904327393
1749571,妙宗秀明宮,普庵祖師,,,新北市,新北市三芝區興華里車埕68號之1,道教,補辦登記,02-26371998,邱黃金子,,121.493698120117,25.1933193206787
1749576,圓覺精舍,釋迦牟尼佛,,,桃園市,桃園市中壢區福德里13鄰光華二街1號,佛教,正式登記,03-4635396,張松村,,121.257400512695,24.9779510498047
1749578,三元宮,三官大帝,,,新竹縣,新竹縣北埔鄉南坑村2鄰九份子29號,道教,正式登記,03-5801014,羅玉湘,,121.054420471191,24.6746444702148
1749582,長慶廟,福德正神,,,臺北市,臺北市中正區板溪里晉江街34號,道教,正式登記,02-23653426,洪文勝,,121.521842956543,25.0251026153564
1749584,上清宮,天上聖母,,,新北市,新北市五股區集福里成泰路四段43之1號,道教,補辦登記,02-22912961,鄭漢騰,,121.456497192383,25.1117401123047
1749615,草山福德宮,福德正神,,,基隆市,基隆市中正區調和街154之3號,道教,補辦登記,02-24693042,邱明山,,121.798500061035,25.1315498352051
1749616,金山寺,釋迦牟尼佛,,,新北市,新北市金山區清泉里8鄰西勢13之1號,佛教,補辦登記,02-24987696,林美皇,,121.624885559082,25.2346858978271
1749634,五股玄女宮,九天玄女,,,新北市,新北市五股區民義路一段220巷21號,道教,補辦登記,02-22914610,李士彬,,121.429298400879,25.095100402832
1749638,明玄宮,地母至尊,,,基隆市,基隆市仁愛區南榮路117巷31弄1號,道教,正式登記,02-24223163,林木火,,121.743797302246,25.1257705688477
1749643,福長宮,福德正神,,,基隆市,基隆市中正區北寧路369巷43之7號,道教,補辦登記,02-00000000,朱英和,,121.802192687988,25.1423473358154
1749647,寧興宮,楊府真人,,,新竹市,新竹市東區三民里14鄰民族路193巷16號,道教,正式登記,03-5335291,呂惟源,,120.979698181152,24.8100700378418
1749663,岐山巖,清水祖師,,,新北市,新北市新店區屈尺里屈尺路125號,道教,正式登記,02-26668220,唐萬居,,121.545097351074,24.9232807159424
1749664,潤濟宮,三官大帝,,,新北市,新北市新店區安康路三段306號,道教,正式登記,02-22151417,廖榮權,,121.487396240234,24.9521503448486
1749670,集義宮,三府王爺,,,臺北市,臺北市萬華區富福里康定路249號,道教,正式登記,02-23067676,高王燦,,121.50129699707,25.0349102020264
1749676,保坪宮,玄天上帝,,,新北市,新北市坪林區坪林街79號,道教,正式登記,02-00000000,陳人華,,121.711502075195,24.9371299743652
1749680,壽山宮,天上聖母,,,新北市,新北市雙溪區泰平里溪尾寮45號,道教,補辦登記,02-24933518,呂傳義,,121.820899963379,24.9675903320313
1749681,深庫佛寺,釋迦牟尼佛,,,新北市,新北市雙溪區外柑里15鄰三叉坑11之2號,佛教,補辦登記,02-24934257,曾清和,,121.829696655273,25.0012435913086
1749685,興隆宮,福德正神,,,基隆市,基隆市暖暖區興隆街2號邊,道教,補辦登記,02-24577718,陳桂葉(暫代),,121.745697021484,25.1033897399902
1749698,福林宮,三官大帝,,,桃園市,桃園市平鎮區福林里9鄰6號,道教,正式登記,03-4699226,張金龍,,121.213150024414,24.8994426727295
1749699,福德祠,福德正神,,,桃園市,桃園市平鎮區東社里圳南路11鄰18巷2之1號,道教,補辦登記,03-4501106,姜尾鳳,,121.24390411377,24.9234752655029
1749710,圓光寺,釋迦牟尼佛,,,新竹市,新竹市東區高峰里12鄰高峰路131號,佛教,正式登記,03-5224064,釋文徹,,120.974403381348,24.7908992767334
1749729,和德宮,福德正神,,,新北市,新北市汐止區樟樹一路129巷34弄21號,道教,正式登記,02-26415298,黃天福,,121.640502929688,25.0653800964355
1749730,賜福宮,福德正神,,,新北市,新北市汐止區茄苳里茄福街76巷1號邊,道教,補辦登記,02-86480327,鄭月春,,121.672401428223,25.067289352417
1749731,板橋區深丘福德宮,福德正神,,,新北市,新北市板橋區區運路77號,道教,補辦登記,02-29610359,黃水盛,,121.467796325684,25.0112495422363
1749734,福安宮,關聖帝君,,,新北市,新北市汐止區樟樹二路357號門前,道教,補辦登記,02-26423520,吳生輝,,121.644607543945,25.0744934082031
1749747,仁和佛院,彌勒佛,,,新竹縣,新竹縣新豐鄉坑子口上坑村189之1號,一貫道,補辦登記,03-5595031,翁生春,,120.976196289063,24.8844699859619
1749811,德和宮,福德正神,,,基隆市,基隆市中山區復興路228之1號,道教,補辦登記,02-24377659,楊振源,,121.726081848145,25.1466941833496
1749817,善果林淨土寺,阿彌陀佛,觀世音菩薩,大勢至菩薩,桃園市,桃園市中壢區過嶺里4鄰福田路99號,佛教,正式登記,03-4907463,周書賢,,121.167503356934,24.9584007263184
1749820,普濟寺（原名鐵真院）,普庵祖師,,,臺北市,臺北市北投區溫泉路112、114號,佛教,正式登記,02-28914386,陳建中,,121.515197753906,25.141300201416
1749822,新福宮,福德正神,,,新北市,新北市汐止區茄苳路25號後方100公尺處,道教,補辦登記,02-86488948,陶威中,,121.665298461914,25.0709400177002
1749831,三崇宮,三官大帝,,,桃園市,桃園市平鎮區新榮里振興西路16鄰112號之1,道教,補辦登記,03-4923027,卓信旺,,121.214500427246,24.9458694458008
1749836,元光寺,釋迦牟尼佛,,,新竹縣,新竹縣峨眉鄉七星村13鄰6寮53號,佛教,正式登記,03-5809351,釋普獻,,121.01358795166,24.6425533294678
1749841,翠壁岩寺,釋迦牟尼佛,,,新竹市,新竹市東區仙宮里5鄰高翠路6號,佛教,正式登記,03-5226555,楊碧娟,,120.987648010254,24.78493309021
1749845,燥坑永和宮,三官大帝,,,新竹縣,新竹縣關西鎮南新里燥坑5鄰61之2號,道教,補辦登記,03-5872740,劉興業,,121.167617797852,24.7756328582764
1749863,基隆太白莊福德宮,福德正神,,,基隆市,基隆市中山區光華路15巷11之1號,佛教,補辦登記,02-24286519,呂清波,,121.744102478027,25.1535892486572
1749872,汾陽宮,開漳聖王,,,臺北市,臺北市北投區福興里石牌路1段58巷28弄臨7號,道教,補辦登記,02-28272054,郭金龍,,121.512100219727,25.1124401092529
1749873,增福慈惠堂,瑤池金母,,,新北市,新北市汐止區長青里八連路三段238號之3,道教,補辦登記,02-26452242,張秋霞,,121.610122680664,25.1223297119141
1749874,濟德宮,天上聖母,,,新北市,新北市汐止區禮門里中正路239號,道教,補辦登記,02-26411362,許仲辰,,121.657699584961,25.0685501098633
1749885,中埔聖德宮,福德正神,,,新竹市,新竹市香山區中埔里7鄰牛埔東路150巷3號,道教,補辦登記,03-5386461,曾炎基,,120.947792053223,24.7979068756104
1749886,福安堂,普庵祖師,,,桃園市,桃園市桃園區朝陽街36巷15號,佛教,正式登記,03-3324385,呂阿美,,121.313697814941,24.9971809387207
1749888,代天府,三府王爺,,,新北市,新北市瑞芳區汽車路56號,道教,補辦登記,02-24976759,石智能,,121.845703125,25.111270904541
1749892,忠義宮蘇府王爺廟,蘇府王爺,,,新北市,新北市淡水區中正路一段32號,道教,補辦登記,02-28051276,陳榮煌,,121.426597595215,25.1766204833984
1749893,淡水清水巖,清水祖師,,,新北市,新北市淡水區清水街87號,道教,補辦登記,02-26212236,李宗燦,,121.441101074219,25.1703205108643
1749915,下街福德宮,福德正神,,,新北市,新北市汐止區智慧里汐萬路一段37號,道教,補辦登記,092-8609111,高睿勲,,121.655601501465,25.0679607391357
1749928,青山巖,普庵祖師,,,新北市,新北市新店區柴埕里柴埕路52巷20號,佛教,補辦登記,02-22116642,周艷麗,,121.510200500488,24.9657592773438
1749932,萬里區磺潭里福德宮,福德正神,,,新北市,新北市萬里區磺潭里磺溪12號左前方100公尺,道教,補辦登記,032-983580,江榮春,,121.630165100098,25.2031211853027
1749978,新店竹雲寺,普庵祖師,,,新北市,新北市新店區員潭里中生路149號,佛教,補辦登記,02-22195353,吳竹崎,,121.567306518555,24.9499549865723
1749981,富士坪福德宮,福德正神,,,新北市,新北市萬里區溪底里富士坪6號之2,道教,補辦登記,02-24923479,吳貦鈍,,121.621681213379,25.1558666229248
1749999,長興宮,福德正神,,,新北市,新北市新店區粗坑里新烏路1段70號,道教,補辦登記,02-26667370,鄭明華,,121.5458984375,24.9473991394043
1750000,先帝宮,神農大帝,,,新北市,新北市新店區雙坑里北宜路3段335巷15號,道教,補辦登記,02-22176253,葉進芳,,121.609596252441,24.9572296142578
1750001,開靈慈隱宮,普庵祖師,,,新北市,新北市新店區廣興里小坑二路2巷7號,道教,補辦登記,02-26668090,鄭菊,,121.532302856445,24.9166297912598
1750002,建業福德宮,福德正神,,,新北市,新北市新店區日興里建業路2號之1,道教,補辦登記,02-22156266,余昱興,,121.484100341797,24.9512805938721
1750003,野柳保安宮,開漳聖王,,,新北市,新北市萬里區野柳里港東69號,道教,補辦登記,02-24925659,林元莊,,121.688102722168,25.2044792175293
1750004,北城順清宮,正一天師,,,新北市,新北市萬里區磺潭里清水路18號,道教,正式登記,02-24987405,諶游永,,2.68102189693309e-06,8.04544288257603e-06
1750005,萬里里成功新邨福德宮,福德正神,,,新北市,新北市萬里區萬里里成功新村環河路旁,道教,補辦登記,02-24921789,何文杞,,-3.48675457644276e-05,-0.0001072884115274
1750018,天佛禪寺,藥師佛,,,新北市,新北市坪林區大林里(魚逮)魚堀26之2號,佛教,補辦登記,02-26658092,印良,,121.7041015625,24.924430847168
1750023,慈安宮,天上聖母,,,新北市,新北市雙溪區三港里三港7號,道教,補辦登記,02-24931816,葉俊郎,,121.880096435547,25.0529403686523
1750025,志安宮,五府千歲,,,新北市,新北市泰山區明志路3段196巷23弄22號,道教,補辦登記,02-29023064,顏日清,,121.422798156738,25.0389995574951
1750039,蓮光寺,釋迦牟尼佛,,,新北市,新北市三芝區興華里鄰車埕9之1號,佛教,補辦登記,02-26372047,陳金英,,121.502502441406,25.2001399993896
1750043,天德宮,關聖帝君,,,基隆市,基隆市中正區中正路656巷97號,道教,正式登記,02-24621239,蘇忠山,,121.767700195313,25.1497402191162
1750045,鎮天宮,五年千歲,,,新北市,新北市金山區法鼓118號,道教,補辦登記,02-24982114,李鑫濃,,121.638000488281,25.2221508026123
1750046,武英殿廟,西秦王爺,,,新北市,新北市金山區美田里文化二路4號,道教,補辦登記,02-24981624,許權賜,,121.63680267334,25.2247295379639
1750047,法雨山普宜苑,釋迦牟尼佛,,,臺北市,臺北市士林區溪山里至善路3段181巷5弄5號,佛教,正式登記,02-28413393,張立臻,,121.577201843262,25.1213798522949
1750053,仙洞巖佛寺,釋迦牟尼佛,,,基隆市,基隆市中山區仁安街1號(右側天然山洞),佛教,正式登記,02-24228359,吳海芳,,121.748245239258,25.1450424194336
1750054,五顯宮,五顯大帝,,,基隆市,基隆市安樂區定國街149號,道教,補辦登記,02-24232348,洪士文,,121.732200622559,25.1360893249512
1750081,東興廟,里主尊王爺,,,基隆市,基隆市暖暖區東勢街8之25號,道教,正式登記,02-24572286,李銘村,,121.73860168457,25.0950107574463
1750087,竹林寺,釋迦牟尼佛,,,新北市,新北市新店區文中里文中路66號,佛教,正式登記,02-29111937,陳麗君,,121.541702270508,24.9564208984375
1750092,萬里區龜吼里鼓亭路福安宮,福德正神,,,新北市,新北市萬里區龜吼里鼓亭路11號之1,道教,補辦登記,02-24921927,林家淵,,121.68359375,25.1902828216553
1750093,北基福德宮,福德正神,,,新北市,新北市萬里區北基里忠一街1號對面,道教,補辦登記,02-24921239,王水慶,,121.686401367188,25.1764698028564
1750106,泰山鳳山寺,廣澤尊王,,,新北市,新北市泰山區大科里1鄰大科路80號旁,道教,補辦登記,02-29096966,黃宗德,,121.410003662109,25.0613594055176
1750109,金山寺,釋迦牟尼佛,,,基隆市,基隆市暖暖區金山街52號,佛教,正式登記,02-24592378,釋宗音,,121.740501403809,25.1004600524902
1750124,顯應祖師泰山巖,顯應祖師,,,新北市,新北市泰山區山腳里明志路1段254號,佛教,補辦登記,02-29094226,李鴻鈞,,121.431999206543,25.0606803894043
1750163,南天宮,玉皇大帝,,,基隆市,基隆市仁愛區南榮路231巷35號,道教,正式登記,02-24235161,游林碧英,,121.743919372559,25.1214237213135
1750170,浮雲寺,普庵祖師,,,基隆市,基隆市中正區平一路12號,佛教,正式登記,02-24624074,劉坤輝,,121.765914916992,25.1553974151611
1750196,淡水大庄福德廟府,福德正神,,,新北市,新北市淡水區沙崙里新民街一段136號,道教,正式登記,02-28052332,謝敏男,,121.427597045898,25.1891193389893
1750218,林口嘉天宮,天上聖母,,,新北市,新北市林口區嘉寶里嘉溪雅坑27號,道教,補辦登記,02-26052386,黃偉義,,121.316802978516,25.1190605163574
1750222,竹林慈玄宮,玄天上帝,,,新北市,新北市淡水區民生里大同路220號,道教,補辦登記,02-28098878,蔡錦賢,,121.465202331543,25.1413307189941
1750245,林口雷興寺仙公廟,孚佑帝君,,,新北市,新北市林口區竹林路270號,道教,補辦登記,02-26013878,陳文杰,,121.389938354492,25.0813140869141
1750246,林口鄉鳳陽寺,普庵祖師,,,新北市,新北市林口區湖北里6鄰湖子36號之1,道教,補辦登記,02-86012030,洪麗媚,,121.386077880859,25.0934410095215
1750250,新北市淡水區普照寺,釋迦牟尼佛,,,新北市,新北市淡水區賢孝里公埔子2號,佛教,補辦登記,02-28011596,林靜宜,,121.463302612305,25.2266902923584
1750256,十方大法寺,燃燈佛,釋迦牟尼佛,彌勒佛,新北市,新北市平溪區靜安路三段10號,佛教,補辦登記,02-24951363,呂瑞麒,,121.750297546387,25.0258903503418
1750267,蓮法寺,釋迦牟尼佛,,,基隆市,基隆市仁愛區劉銘傳路29號,佛教,正式登記,02-24247776,釋傳璽,,121.750900268555,25.1271591186523
1750268,銅陵關聖帝君廟,關聖帝君,,,基隆市,基隆市仁愛區獅球路163號,道教,補辦登記,02-24317182,林捷盛,,121.73690032959,25.1242351531982
1750270,聖佑宮,天上聖母,,,新北市,新北市三重區永福街269號,道教,正式登記,02-22869473,黃文雄,,121.481903076172,25.0742607116699
1750272,大和宮,福德正神,,,基隆市,基隆市中正區中船路112巷30弄63號,道教,補辦登記,02-24288580,李煥文,,121.753410339355,25.1376285552979
1750273,紫竹巖,普庵祖師,,,基隆市,基隆市中正區中船路78巷22號,佛教,正式登記,02-24226683,何文美,,121.751907348633,25.1371974945068
1750274,菩因禪寺,阿彌陀佛,,,桃園市,桃園市大園區後厝村4鄰10-5號,佛教,補辦登記,03-3867908,李秀琴,,121.225051879883,25.0875701904297
1750276,承天宮,延平郡王,,,新北市,新北市金山區磺港里磺港路161號,道教,補辦登記,02-24983239,謝福壽,,121.644599914551,25.2254600524902
1750277,淨因寺,釋迦牟尼佛,,,臺北市,臺北市士林區臨溪里劍南路201號,佛教,正式登記,02-28412935,謝江麗英,,121.556396484375,25.0999202728271
1750330,鶯歌碧龍宮,八卦祖師,,,新北市,新北市鶯歌區建德里中正一路碧龍巷33號,道教,補辦登記,02-26795842,周德永,,121.366096496582,24.9623603820801
1750348,林口福滿宮,福德正神,,,新北市,新北市林口區嘉寶里寶斗厝坑38號之2,道教,補辦登記,02-26051109,黃凱生,,121.347602844238,25.1156406402588
1750352,淡水鎮天后宮,天上聖母,,,新北市,新北市淡水區中興里水源街1段53巷31號之8,道教,補辦登記,02-26229233,呂雨亭,,121.444755554199,25.1751346588135
1750356,台北市聖安宮,天上聖母,,,臺北市,臺北市萬華區和德里西園路2段372巷16號,道教,正式登記,02-23075012,洪全璋,,121.495796203613,25.0306301116943
1750384,芝山巖惠濟宮,開漳聖王,,,臺北市,臺北市士林區名山里至誠路1段326巷26號,道教,正式登記,02-28311728,邱德旺,,121.536697387695,25.1014499664307
1750389,仁義宮,關聖帝君,,,基隆市,基隆市中山區太白街37巷3號,佛教,補辦登記,02-24231035,廖柯巧雲,,121.745903015137,25.1470508575439
1750391,福德宮,福德正神,,,基隆市,基隆市中山區文明路65號,佛教,補辦登記,02-24239180,梁高淑真,,121.729301452637,25.1569900512695
1750398,福慈宮,福德正神,,,臺北市,臺北市北投區中央北路4段30巷臨68號,道教,補辦登記,02-28916058,丁福訓,,121.476196289063,25.1380004882813
1750400,上下山三崁店福德祠,福德正神,,,新竹縣,新竹縣芎林鄉上山村文山路1205號,道教,正式登記,03-5922260,何信橋,,121.064102172852,24.790599822998
1750408,協天宮,關聖帝君,,,桃園市,桃園市觀音區樹林村5鄰55號,道教,正式登記,03-4839546,李德木,,121.121223449707,25.0525035858154
1750409,儒林佛院,彌勒佛,,,新北市,新北市石碇區隆盛里八分寮43號,一貫道,補辦登記,02-26633756,林義雄,,121.642303466797,25.0119495391846
1750413,青龍宮,九龍三公,,,臺北市,臺北市萬華區和平里雙園街60巷88號,道教,正式登記,02-23066456,林祈賢(代),,121.492401123047,25.0288200378418
1750417,泓德佛堂,明明上帝,,,桃園市,桃園市桃園區富國路717巷12-3號,一貫道,補辦登記,03-3071758,姚明宏,,121.279167175293,25.0217552185059
1750418,深坑慈聖宮,蘇府王爺,,,新北市,新北市深坑區北深路1段300號,道教,補辦登記,02-26621515,黃明亮,,121.623596191406,25.0055904388428
1750419,九份聖明宮,關聖帝君,,,新北市,新北市瑞芳區崇文里街頂巷56號,道教,補辦登記,02-24972819,林添麟,,121.844200134277,25.1078796386719
1750420,磅磅仔三府宮,三府王爺,,,新北市,新北市瑞芳區瑞濱里瑞濱路55之2號,道教,補辦登記,02-24976104,張進忠,,121.825897216797,25.1208992004395
1750424,賢孝玄聖殿,無極聖祖,,,新北市,新北市淡水區賢孝里後洲子6之1號,道教,補辦登記,02-28010796,游天來,,121.448501586914,25.2238292694092
1750440,財團法人桃園市大樹林天后宮,天上聖母,,,桃園市,桃園市桃園區保羅街58號,,正式登記,03-3626009,,,121.309562683105,24.9825839996338
1750441,桃園市中山福德宮,福德正神,,,桃園市,桃園市桃園區泰成路62巷67-3號,道教,補辦登記,092-0713097,林人哲,,121.297309875488,24.9886035919189
1750452,忠孝宮,關聖帝君,,,新北市,新北市瑞芳區深澳里14鄰建基路二段5號,道教,補辦登記,09-35142040,陳世力,,121.810997009277,25.1324195861816
1750466,玉山宮,福德正神,,,桃園市,桃園市桃園區大同西路122號,道教,正式登記,03-3355862,游輝居,,121.301246643066,24.9892101287842
1750467,宏德宮,福德正神,,,桃園市,桃園市桃園區龍崗里上海路226-1號,道教,補辦登記,03-3797236,蕭愛圓,,121.281929016113,24.9932460784912
1750469,新興宮,天上聖母,,,新北市,新北市瑞芳區鼻頭里鼻頭路41號之2,道教,補辦登記,02-24911322,王彥斌,,121.916297912598,25.1246891021729
1750471,助順將軍廟,助順將軍,,,臺北市,臺北市萬華區萬壽里康定路9、11、13號,道教,正式登記,02-23716144,洪祝顯,,121.503303527832,25.0454292297363
1750478,福山宮,福德正神,,,新北市,新北市瑞芳區永慶里崙頂路2號,道教,補辦登記,02-24960303,江本平,,121.846420288086,25.1071548461914
1750496,田都元帥廟,田都元帥,,,基隆市,基隆市安樂區西川里新西街2巷55之3號,道教,補辦登記,02-24273596,姚強(逕予登錄),,121.729705810547,25.1363735198975
1750497,圓通寺,普庵祖師,,,基隆市,基隆市安樂區新西街89巷26號,佛教,補辦登記,02-24233552,郭果賢,,121.725997924805,25.1397800445557
1750504,台北市北投區佛林寺,阿彌陀佛,觀世音菩薩,大勢至菩薩,臺北市,臺北市北投區林泉里溫泉路150-1號,佛教,補辦登記,02-28968310,吳柏宏,,121.513298034668,25.1390895843506
1750505,虎形山福德宮,福德正神,,,新北市,新北市汐止區新昌里招商街1號,道教,補辦登記,02-26435405,林萬財,,121.665397644043,25.069709777832
1750557,鳳和宮,天上聖母,,,新竹市,新竹市香山區樹下里7鄰浸水街191巷54號,道教,補辦登記,03-5300136,吳漢欽,,120.931884765625,24.7977046966553
1750558,頂埔宮,福德正神,,,新竹市,新竹市香山區頂埔里18鄰中山路600巷8弄2號,道教,補辦登記,03-5225771,陳文禮,,120.954650878906,24.7973175048828
1750559,新竹市龍興宮,友聖公,,,新竹市,新竹市香山區牛埔東路178巷6-2號,道教,補辦登記,03-5386510,蘇寬裕,,120.947250366211,24.7978534698486
1750560,幸山宮,廣澤尊王,,,新竹市,新竹市香山區南港里6鄰南港街101巷5-1號,道教,補辦登記,03-5374877,許玉堂,,120.891960144043,24.7371768951416
1750588,拾壹公廟,拾壹公,,,新竹市,新竹市北區虎山里7鄰延平路二段1239巷100號,道教,補辦登記,03-5266772,蔡木榮,,120.93677520752,24.8407783508301
1750597,九份明聖宮,關聖帝君,,,新北市,新北市瑞芳區頌德里坑尾巷37號,道教,補辦登記,02-24971238,魏水田,,121.844299316406,25.1114692687988
1750598,勸濟堂,關聖帝君,,,新北市,新北市瑞芳區銅山里祈堂路53號,道教,補辦登記,02-24961273,連城珍,,121.859802246094,25.1100406646729
1750601,淡水真武廟,玄天上帝,,,新北市,新北市淡水區八勢里八勢路一段100巷6號,道教,補辦登記,02-28093195,盧木安,,121.467300415039,25.1547393798828
1750633,慶安宮,天上聖母,,,基隆市,基隆市仁愛區忠二路1號,道教,正式登記,02-24247708,童永,,121.740798950195,25.1295299530029
1750634,福安宮,福德正神,,,基隆市,基隆市仁愛區愛四路2巷22號,道教,正式登記,02-24250557,闕美玉(暫代),,121.743698120117,25.1271133422852
1750641,保安宮,廣澤尊王,,,桃園市,桃園市大園區沙崙村12鄰38-1號,道教,補辦登記,03-3836940,陳連壽,,121.223808288574,25.0937309265137
1750643,台北地藏禪寺,地藏王菩薩,,,臺北市,臺北市士林區福安里延平北路7段189號,佛教,補辦登記,02-28100237,林慧明,,121.491401672363,25.0996208190918
1750670,關聖宮,關聖帝君,,,新北市,新北市坪林區石嘈里6鄰碧湖8號之5,道教,補辦登記,02-26657364,鄭天來,,121.762092590332,24.8753223419189
1750751,聖德福龍廟,福德正神,,,新北市,新北市汐止區保長里保新街147號,道教,補辦登記,02-26486587,曾美華,,121.688201904297,25.0699501037598
1750760,慈幸宮,關聖帝君,,,基隆市,基隆市信義區信二路74巷21號,道教,補辦登記,02-24229508,連轉旺,,121.755599975586,25.1296005249023
1750845,財團法人九府仙師普惠堂,九府仙師,,,臺北市,臺北市中山區集英里民權西路70巷49號,道教,正式登記,02-25426811,張輝雄,,121.520599365234,25.060640335083
1750937,佛國寺,阿彌陀佛,,,新北市,新北市泰山區明志里明志路二段254巷16弄37號,佛教,補辦登記,02-22968210,姜仁等,,121.426002502441,25.0491409301758
1750962,德安宮,福德正神,,,基隆市,基隆市中山區太白街111巷1號,佛教,補辦登記,02-24241880,王金城,,121.744499206543,25.1485500335693
1750970,北投天保宮,玄天上帝,,,臺北市,臺北市北投區中和街秀山里446巷74號樓,道教,補辦登記,02-28934837,葉雲富(代),,121.504203796387,25.1390209197998
1750971,秀峰山靜修禪院,釋迦牟尼佛,,,新北市,新北市汐止區秀山里秀峰路155號,佛教,正式登記,02-26412614,謝貴貞,,121.661499023438,25.0617198944092
1750976,林口新福宮,福德正神,,,新北市,新北市林口區文化北路1段412巷76號前,道教,補辦登記,02-26011833,陳文隆,,121.365798950195,25.0761394500732
1750979,咸亨宮,福德正神,,,新北市,新北市新店區百忍里自由街2號,道教,正式登記,02-29173839,陳文雄,,121.535400390625,24.9751491546631
1750982,祈福保生宮,保生大帝,,,新北市,新北市淡水區義山里下圭柔山28之1號,道教,補辦登記,02-26214589,蔡明和,,121.45760345459,25.2045593261719
1751001,基隆護國城隍廟,城隍爺,,,基隆市,基隆市仁愛區忠一路7號,道教,正式登記,02-24250955,郭張碧玉,,121.740600585938,25.1308193206787
1751088,南華宮,三一教主,,,新竹市,新竹市香山區南港里2鄰南港街32巷16號,道教,正式登記,03-5374880,林英男,,120.899658203125,24.7416152954102
1751089,桃園永安宮,三府王爺,,,桃園市,桃園市桃園區大有路946巷203號,道教,補辦登記,03-3253416,郭來哲,,121.318031311035,25.0256080627441
1751090,萬福寺,普庵祖師,,,新北市,新北市深坑區萬福里萬福路75巷73號,道教,補辦登記,02-26622911,張陳美華,,121.598701477051,25.009220123291
1751091,福龍宮,天上聖母,,,新北市,新北市瑞芳區海濱里海濱路39號,道教,補辦登記,02-24978281,呂萬和,,121.831100463867,25.1243591308594
1751095,緣道觀音廟,大自在王佛,,,新北市,新北市淡水區蕃薯里安子內3號,佛教,正式登記,02-26269242,黃錦春,,121.48690032959,25.2147407531738
1751111,南山寺,孚佑帝君,,,新北市,新北市坪林區漁光里樟空子5號,道教,補辦登記,02-26656697,白明堂,,121.72730255127,24.9677391052246
1751125,新店寶橋福壽宮,福德正神,,,新北市,新北市新店區寶福里寶橋路266號,道教,補辦登記,02-29146588,陳金定,,121.55290222168,24.9790592193604
1751126,保生宮,保生大帝,,,桃園市,桃園市新屋區永安里13鄰保生路51號,道教,正式登記,03-4861410,莊忠雄,,121.027496337891,24.9882698059082
1751129,靈泉寺,釋迦牟尼佛,,,新北市,新北市萬里區溪底里瑞泉路2之6號,佛教,補辦登記,02-24921631,鐘月蓉,,121.639503479004,25.1603698730469
1751142,靈霞寺,釋迦牟尼佛,,,新竹縣,新竹縣峨眉鄉七星村14鄰56號,佛教,正式登記,03-5800371,黃菊妹,,121.01619720459,24.6458206176758
1751146,新大眾廟,地藏王菩薩,,,新竹市,新竹市東區光鎮里明湖路281號,佛教,正式登記,03-5227263,溫明順,,120.96800994873,24.7891635894775
1751147,東門保福德祠,福德正神,,,新竹市,新竹市東區東門里東前街27號,道教,正式登記,03-5238710,廖建福,,120.968101501465,24.804370880127
1751241,南天南天宮,普庵祖師,,,新北市,新北市永和區民富里民樂街59巷1之1號,道教,補辦登記,02-29280667,吳志浩,,121.527702331543,24.9983406066895
1751247,清華寺,釋迦牟尼佛,,,新北市,新北市永和區國光路97號,佛教,補辦登記,02-89239966,黃偷算,,121.517997741699,25.0094890594482
1751273,五福宮,開漳聖王,,,桃園市,桃園市大園區五權村6鄰五福路112號,道教,正式登記,03-3814128,黃文富,,121.227958679199,25.0179424285889
1751275,金法林,釋迦牟尼佛,,,新北市,新北市金山區重和里秀峰坪1之5號,佛教,補辦登記,02-24080546,江秋,,121.599296569824,25.1988906860352
1751276,妙法寺,普庵祖師,,,臺北市,臺北市士林區溪山里至善路3段307號,佛教,正式登記,02-28412600,釋悟慈,,121.58699798584,25.1234493255615
1751280,千佛禪寺,釋迦牟尼佛,,,基隆市,基隆市中山區中山一路241巷110號,佛教,正式登記,02-24258487,蕭淑真,,121.738098144531,25.1361293792725
1751281,鎮安宮,福德正神,,,基隆市,基隆市中山區通仁街18之2號,道教,正式登記,02-24245843,翁海清,,121.737915039063,25.1460227966309
1751286,普忠里福德祠,福德正神,,,桃園市,桃園市中壢區新中一街29號,道教,正式登記,03-455-2813,陳光明,,121.243560791016,24.9600067138672
1751288,陽明山慈惠堂,瑤池金母,,,臺北市,臺北市北投區溫泉里奇岩路17號,道教,正式登記,02-28914336,陳天來,,121.508003234863,25.1337890625
1751291,和德祠,福德正神,,,臺北市,臺北市大同區永樂里甘谷街42號,道教,正式登記,02-25550172,李林世津,,121.510612487793,25.0528335571289
1751293,新坡尾福德廟,福德正神,,,臺北市,臺北市內湖區內湖路3段367號,道教,補辦登記,09-32012098,李明和,,121.583503723145,25.0895404815674
1751296,福德宮,福德正神,,,基隆市,基隆市七堵區瑪東里大同街59之1號旁,道教,補辦登記,02-24310893,李添財,,121.686279296875,25.134256362915
1751299,先天道院,明明上帝,,,臺北市,臺北市萬華區孝德里寶興街188巷2號,一貫道,正式登記,02-23056278,劉定文,,121.495101928711,25.0233306884766
1751301,太初玄清宮,三清道祖,,,新竹市,新竹市香山區瑞光街164巷99號,道教,正式登記,03-5385116,葉金進,,120.921195983887,24.7979965209961
1751302,育德講堂,普庵祖師,,,桃園市,桃園市桃園區國際路1段700巷13號,一貫道,補辦登記,03-3665300,陳富美,,121.290916442871,24.9774341583252
1751305,保民堂,神農大帝,,,新北市,新北市瑞芳區瓜山里金光路117號,道教,補辦登記,02-24961249,郭先智,,121.853897094727,25.1062297821045
1751308,淡水行忠宮,關聖帝君,,,新北市,新北市淡水區沙崙里新民街一段80號,道教,補辦登記,091-0759187,黃德利,,121.427597045898,25.1891193389893
1751317,佛教弘誓學院,釋迦牟尼佛,,,桃園市,桃園市觀音區新富路一段622巷28號,佛教,正式登記,03-4987325,李素英,,121.142555236816,25.0089721679688
1751318,德玄宮,太上老君,,,新北市,新北市石碇區豐田里3鄰磨石坑36號,道教,補辦登記,02-26631845,吳春生,,121.69165802002,24.9659423828125
1751321,福德祠,福德正神,,,新北市,新北市汐止區長安里長興街一段79號之1,道教,補辦登記,02-86488699,蘇文進,,121.670799255371,25.0797595977783
1751322,神桌洲福德宮(已廢止),福德正神,,,新北市,新北市板橋區大觀路2段174巷129弄70號邊,道教,補辦登記,02-29683323,施火星,,121.442001342773,25.0004997253418
1751329,正興宮,孚佑帝君,,,新北市,新北市淡水區崁頂里崁頂15號,道教,補辦登記,02-26230910,呂嘉騏,,121.439399719238,25.1858806610107
1751339,鼻頭福靈宮,福德正神,,,新北市,新北市瑞芳區鼻頭路1號後,道教,補辦登記,09-63757871,陳旺佳,,121.915786743164,25.1248645782471
1751447,豐安廟,四府將軍,,,新竹市,新竹市香山區大庄里7鄰宮口街57巷23號,道教,補辦登記,03-5382639,張江河,,120.921508789063,24.7918186187744
1751499,后厝福德宮,福德正神,,,桃園市,桃園市觀音區保障村15鄰草漯107-1號,道教,補辦登記,03-4830448,曾武龍,,121.145904541016,25.0492897033691
1751501,港口奉聖宮,天上聖母,,,臺北市,臺北市信義區臥龍街11055 431巷52號,道教,正式登記,02-27361249,羅李阿昭,,121.563499450684,25.012020111084
1751503,福壽宮,福德正神,,,新北市,新北市汐止區環河里2鄰吉林街24巷底,道教,補辦登記,02-26941552,林蔡金麗,,121.619400024414,25.064769744873
1751504,保長仙姑廟,陳仙姑,,,新北市,新北市汐止區保長里長興街二段50巷50號之1,道教,補辦登記,02-86489949,林素美,,121.675498962402,25.080680847168
1751525,瑞濱深德宮,天上聖母,,,新北市,新北市瑞芳區瑞濱里瑞濱路123之1號,道教,補辦登記,02-24966599,黃國展,,121.820701599121,25.119499206543
1751527,蓮池寺,釋迦牟尼佛,,,臺北市,臺北市萬華區柳鄉里桂林路246巷48號,佛教,正式登記,02-23060053,劉清銓,,121.492500305176,25.0368003845215
1751529,天寶殿,瑤池金母,,,新北市,新北市淡水區樹興里白石腳3號,道教,補辦登記,02-26219597,翁嘉宏,,121.487503051758,25.1751708984375
1751548,財團法人台灣省基隆市慈安宮,中壇元帥,,,基隆市,基隆市中正區正義路2巷6之1號,道教,正式登記,02-24231572,,,121.74747467041,25.1327648162842
1751549,財團法人台灣省桃園縣大崙崇德宮,三官大帝,,,桃園市,桃園市中壢區內厝里9鄰中正路4段26巷36號,,正式登記,03-4982592,劉利添,,0.0,0.0
1751594,九龍順天宮,玄天上帝,,,新北市,新北市五股區集賢里凌雲路2段35號之1,道教,補辦登記,02-22923479,李永芳,,121.43879699707,25.1027507781982
1751600,玉泉山普照宮,關聖帝君,,,新竹縣,新竹縣竹東鎮商華里環山路5號,道教,正式登記,03-5962478,邱鴻發,,121.082939147949,24.7328357696533
1751603,甘泉寺,普庵祖師,,,桃園市,桃園市觀音區觀音里1鄰甘泉街1號,佛教,正式登記,03-4732622,曾献奉,,121.081703186035,25.0369853973389
1751604,南屏山壺酒寺,濟公活佛,,,新北市,新北市石碇區永定里8鄰蚯蚓坑19之3號,佛教,補辦登記,093-6340093,蔡水面,,121.690299987793,25.0034503936768
1751605,覺真宮,孚佑帝君,,,新北市,新北市石碇區格頭里北宜路5段濕水子巷2號,道教,補辦登記,02-26651769,陳金財,,121.634696960449,24.9509506225586
1751607,八德寺,濟公活佛,,,新北市,新北市汐止區保新街149號,佛教,補辦登記,02-26416971,蔡松輝,,121.688613891602,25.0700492858887
1751608,妙慧禪寺,釋迦牟尼佛,,,新北市,新北市汐止區小坑路8號,佛教,補辦登記,02-26422874,釋大嚴,,121.693199157715,25.0653800964355
1751643,福興宮,福德正神,,,基隆市,基隆市七堵區大同街瑪東里15號前,道教,補辦登記,02-24565971,楊秀雄,,121.69758605957,25.1169338226318
1751645,南山放生寺,藥師佛,,,新北市,新北市中和區華南里忠孝街108號,佛教,正式登記,02-29450777,釋慧峰,,121.512199401855,24.9847297668457
1751646,東德宮,五府千歲,,,新北市,新北市中和區積穗里新生街112巷臨20號,道教,補辦登記,02-22229013,謝志明,,121.482299804688,25.0030498504639
1751653,礁溪里福德宮,福德正神,,,新北市,新北市三峽區礁溪里長泰街56巷6之1號,道教,補辦登記,02-26710289,陳俊明,,121.37809753418,24.9328193664551
1751658,妙覺寺,釋迦牟尼佛,,,桃園市,桃園市大溪區美山美華里10鄰美山路2段1巷98弄51號,佛教,正式登記,03-3884150,李衍淇,,121.302597045898,24.8692798614502
1751660,無極宮,瑤池金母,,,新北市,新北市八里區米倉里牛寮埔11號之3,道教,補辦登記,02-26102254,陳文果,,121.432197570801,25.1425495147705
1751661,一如慈惠堂,瑤池金母,,,新北市,新北市八里區荖阡里荖阡坑路24號,道教,補辦登記,02-26102691,苑廖春靜,,121.399696350098,25.1376495361328
1751667,代天殿靈雲宮,三聖大帝,,,臺北市,臺北市信義區信義路5段150巷22弄43號,道教,正式登記,03-4505571,林永昌,,121.571098327637,25.0275897979736
1751668,福光寺,普庵祖師,,,基隆市,基隆市信義區培德路209號,佛教,正式登記,02-24656157,劉振裕,,121.773597717285,25.1290397644043
1751674,仁安廟,三山國王,,,新北市,新北市貢寮區真理里新港街26巷53之1號,道教,補辦登記,02-24902606,吳心能,,121.92749786377,25.0535907745361
1751687,順天宮,福德正神,三太子,,新竹市,新竹市香山區內湖里中華路六段226巷48號,道教,補辦登記,03-5372068,王炳南,,120.90754699707,24.7416744232178
1751688,大陳義胞觀音寺,普庵祖師,,,新北市,新北市永和區新生路273巷1之1號,道教,補辦登記,02-29223026,顏達中,,121.505249023438,25.012788772583
1751709,檀林寺,釋迦牟尼佛,,,桃園市,桃園市復興區三民里丸山2鄰3之2號,佛教,補辦登記,03-3328323,李麗芬,,121.345092773438,24.8226680755615
1751730,天后宮,天上聖母,,,新竹市,新竹市東區三民里10鄰中華路二段52號,道教,正式登記,03-5322666,林振永,,120.981201171875,24.8084506988525
1751731,新竹市東勢福龍山宮,福德正神,,,新竹市,新竹市東區東勢里2鄰東勝路46號,道教,正式登記,03-5752613,吳建銘,,120.987503051758,24.8036003112793
1751735,潮音禪寺,釋迦牟尼佛,,,新竹縣,新竹縣關西鎮東安里1鄰中豐路一段80巷10號,佛教,正式登記,03-5872267,姜仁等,,121.177803039551,24.7846202850342
1751797,龍星眾天殿,天上聖母,,,新北市,新北市石碇區潭邊里湳窟路42號,道教,補辦登記,02-26631971,鍾君明,,121.655174255371,24.9941940307617
1751799,靈菩寺,普庵祖師,,,新北市,新北市汐止區忠孝東路512號旁往上450公尺處,佛教,補辦登記,02-86482247,郭華明,,121.666900634766,25.0754909515381
1751800,板橋市正聖福德宮,福德正神,,,新北市,新北市板橋區自由路26巷30號,道教,補辦登記,02-22569557,簡光宏,,121.466796875,25.0224094390869
1751801,三抱竹聚安宮,福德正神,,,新北市,新北市板橋區福安里大觀路二段162號(暫厝),道教,補辦登記,02-29662417,吳濟田,,121.442810058594,24.9988899230957
1751802,板橋接雲寺,普庵祖師,,,新北市,新北市板橋區西門街69號,佛教,補辦登記,02-29660766,江清秀,,121.454399108887,25.0088806152344
1751810,福海宮,天上聖母,,,基隆市,基隆市信義區教孝街55巷11弄16號,佛教,補辦登記,02-24653455,陳進(暫代)往生,,121.774337768555,25.1390933990479
1751819,靈台山靈玄宮,靈山老母,,,基隆市,基隆市七堵區華新二路105之3號,道教,補辦登記,02-24522049,林慶盛,,121.659927368164,25.1232662200928
1751820,白馬寺,釋迦牟尼佛,,,新北市,新北市中和區橫路里興南路三段40巷26號,佛教,正式登記,02-29426228,林玉珍,,121.494598388672,24.9785003662109
1751876,瑞福宮,福德正神,,,新北市,新北市瑞芳區柑坪里明燈路1段84號前,道教,補辦登記,02-24969135,許朝明,,121.819999694824,25.1078796386719
1751877,碧雲宮,玉皇大帝,,,新北市,新北市瑞芳區深澳里深澳路3號,道教,補辦登記,02-24975906,賴孟宏,,121.816398620605,25.1290893554688
1751903,石和宮,關聖帝君,,,新竹縣,新竹縣新豐鄉埔和村19鄰212之1號,道教,補辦登記,03-5689498,洪華駿,,120.997886657715,24.9343528747559
1751904,永安寺,釋迦牟尼佛,,,桃園市,桃園市平鎮區湧光里8鄰湧光路106號,佛教,正式登記,03-4696358,古菊妹,,121.209800720215,24.8969593048096
1751917,福德神宮,福德正神,,,新竹市,新竹市東區福德里6鄰福德街4號,道教,正式登記,03-5265480,蔡永鴻,,120.964996337891,24.7991600036621
1751918,真福地土地公,福德正神,,,新竹市,新竹市東區高峰路202巷3號,道教,正式登記,03-5230176,陳耿弘,,120.976501464844,24.7857704162598
1751928,恆光禪寺,釋迦牟尼佛,,,臺北市,臺北市內湖區碧山路44之6號,佛教,正式登記,02-27933000,吳貞治,,121.589202880859,25.1062202453613
1751931,財團法人新北市淡水無極天元宮,關聖帝君,,,新北市,新北市淡水區水源里北新路3段36號,道教,正式登記,02-26212759,周志達,,121.484703063965,25.1863899230957
1751933,財團法人台灣省新竹市天王宮,李靖托塔天王,,,新竹市,新竹市北區民富里民富街178巷23弄2號,道教,正式登記,03-5252989,李玉玲,,120.958282470703,24.8072547912598
1751934,財團法人奉天宮,天上聖母,,,新竹市,新竹市東區明湖路482巷101號,道教,正式登記,03-5201781,江義德,,120.962516784668,24.7838039398193
1751935,財團法人新北市拱北殿,孚佑帝君,,,新北市,新北市汐止區烘內里汐萬路3段88號,道教,正式登記,02-26461888,林賴松,,121.641899108887,25.0943698883057
1751948,新約龍華佛教聖國山保安堂,普庵祖師,,,臺北市,臺北市萬華區富民里康定路188巷4弄6號,佛教,正式登記,02-23114785,蘇三吉,,121.501403808594,25.0388793945313
1751951,武廟,關聖帝君,,,桃園市,桃園市桃園區民生路167號,道教,正式登記,03-3398175,徐松年,,121.312812805176,24.9943256378174
1751952,太極宮,三清道祖,,,桃園市,桃園市桃園區大有里三元街566號,道教,補辦登記,03-3343168,王德基,,121.318603515625,25.0027904510498
1751954,保安宮,關聖帝君,,,新北市,新北市瑞芳區侯硐里2鄰侯硐路302號,道教,正式登記,02-24972506,黃奕源,,121.831596374512,25.0898456573486
1751988,松山靈隱寺,普庵祖師,,,臺北市,臺北市信義區松隆里松山路臨677之15號,佛教,正式登記,02-27281139,許蓮池,,121.581398010254,25.0250301361084
1751989,極樂寺,釋迦牟尼佛,,,基隆市,基隆市信義區信二路270號,佛教,正式登記,02-24222570,釋星雲,,121.747291564941,25.1308403015137
1752022,財團法人新北市東陽宮,李太白金星,,,新北市,新北市鶯歌區尖山里尖山路86號,道教,正式登記,02-26792550,張天養,,121.348197937012,24.949670791626
1752041,國聖仁和宮,周府將軍,,,新北市,新北市萬里區野柳里坑內11號,道教,補辦登記,02-24983717,張淑慧,,121.686485290527,25.20263671875
1752050,心善寺,釋迦牟尼佛,,,桃園市,桃園市新屋區埔頂里埔頂路416號,佛教,補辦登記,03-4871028,呂萬銘,,121.11067199707,24.9564437866211
1752097,財團法人承天武聖廟,關聖帝君,,,臺北市,臺北市信義區黎安里臥龍街477之12號,道教,正式登記,02-27353788,黃裕欽,,121.563499450684,25.012020111084
1752102,財團法人台北市華嚴蓮社,釋迦牟尼佛,,,臺北市,臺北市中正區濟南路2段44號,佛教,正式登記,02-23513868,許傳齡,,121.530700683594,25.0404090881348
1752105,財團法人台北市圓通學苑,釋迦牟尼佛,,,臺北市,臺北市大安區錦華里潮州街58之1號,佛教,正式登記,02-23217983,游月台,,121.523582458496,25.0292320251465
1752112,福明殿,福德正神,,,基隆市,基隆市七堵區華新一路9之5號,道教,補辦登記,02-24515607,高淮徑,,121.666603088379,25.0889701843262
1752121,五鳳慈蓮寺,準提菩薩,,,新北市,新北市三峽區金圳里金敏54之2號,道教,補辦登記,02-26720653,陳芸汶,,121.40470123291,24.8854103088379
1752131,山口廟,舍人公,,,新北市,新北市三重區光陽里中華路2巷31弄10號,道教,補辦登記,02-29851038,蔡詩鴻,,121.48210144043,25.0608005523682
1752132,三重同仁宮,福德正神,,,新北市,新北市三重區二重里大有街1之41號,道教,補辦登記,02-29813014,葉德根,,121.476501464844,25.0653705596924
1752137,梘頭福德祠,福德正神,,,臺北市,臺北市內湖區內湖路2段450號,道教,正式登記,02-27928299,黃家村,,121.592498779297,25.083589553833
1752140,金剛寺,釋迦牟尼佛,,,新竹縣,新竹縣峨眉鄉七星村14鄰57號,佛教,正式登記,03-5809206,蕭麗芬,,121.015701293945,24.6466007232666
1752144,龍泉寺,釋迦牟尼佛,,,新竹市,新竹市東區高峰里8鄰寶山路188巷2號,佛教,正式登記,03-5229215,許苡汎,,120.975898742676,24.7905807495117
1752152,佛心禪寺,燃燈佛,釋迦牟尼佛,彌勒佛,新北市,新北市坪林區上德里坪碇路333號,佛教,補辦登記,02-26656965,王翠霞,,121.683799743652,24.9528045654297
1752156,照善寺,釋迦牟尼佛,,,基隆市,基隆市仁愛區復興街73巷95號,佛教,補辦登記,02-24260063,洪碧玉,,121.754127502441,25.1249656677246
1752157,天澤宮,廣澤尊王,,,基隆市,基隆市仁愛區南新街51巷73之5號,道教,補辦登記,02-24269106,陳勇呈,,121.749183654785,25.1212062835693
1752161,天聖宮,五府千歲,,,基隆市,基隆市中正區祥豐街449巷43號,道教,補辦登記,02-24622033,謝許月鶯,,121.76789855957,25.1476593017578
1752164,台北市士林承德福德宮,福德正神,,,臺北市,臺北市士林區後港街劍潭路40號,道教,正式登記,02-25322521,陳福隆,,121.522598266602,25.0830307006836
1752213,台北市文山區溝子口福德宮,福德正神,,,臺北市,臺北市文山區木柵路1段59巷1號,道教,正式登記,02-22360769,翁傳煌,,121.551300048828,24.9879302978516
1752227,財團法人新北市新店區太平宮,開漳聖王,,,新北市,新北市新店區太平里太平路61號,道教,正式登記,02-22110081,黃朝安,,121.533096313477,24.9588508605957
1752230,財團法人台灣省基隆市益心堂,金仙姑菩薩,,,基隆市,基隆市安樂區干城里安一路266巷99號,佛教,正式登記,02-24230819,陳淑姿,,121.72859954834,25.1327991485596
1752249,淡水大王廟,城隍爺,,,新北市,新北市淡水區忠寮里大竹圍5號,道教,補辦登記,02-26201145,李啟鈗,,121.466606140137,25.1953105926514
1752250,淡水孫臏宮,孫臏祖師,,,新北市,新北市淡水區中興里水源街一段47巷2號,道教,補辦登記,02-26233865,邱加斗,,121.443901062012,25.1724891662598
1752251,興音寺,普庵祖師,,,新北市,新北市淡水區樹興里興福寮1之6號,佛教,補辦登記,02-86260140,余秋花,,121.488296508789,25.1639995574951
1752252,新北市三寶宮,天上聖母,,,新北市,新北市淡水區水源里南勢埔20號,道教,補辦登記,02-26218587,黃東元,,121.481796264648,25.1783103942871
1752256,護國宮,中壇元帥,,,桃園市,桃園市桃園區中德里15鄰國際路一段401巷123號,道教,正式登記,03-3677405,林銘域,,121.28929901123,24.9665508270264
1752257,崇福寺,釋迦牟尼佛,,,桃園市,桃園市桃園區長安里2鄰民光路168號,佛教,補辦登記,03-3341637,陳建安,,121.304817199707,25.003812789917
1752258,天龍宮,顯應祖師,,,新北市,新北市深坑區阿柔里阿柔洋61號,道教,補辦登記,02-26621931,辜寶童,,121.606796264648,24.9979705810547
1752276,財團法人新竹市東山綠水福德會,福德正神,,,新竹市,新竹市東區綠水里博愛街79巷8號,道教,正式登記,03-5712202,鄭勝焱,,120.981872558594,24.7986602783203
1752288,三塊厝靈安宮,四府將軍,,,新竹市,新竹市香山區樹下里6鄰樹下街95號,道教,正式登記,03-5388266,吳子龍,,120.934364318848,24.799503326416
1752292,新店明聖宮,謝映登仙翁,,,新北市,新北市新店區北宜路二段63巷20號,道教,補辦登記,02-22172020,陳忠作,,121.549201965332,24.9522094726563
1752299,珊瑚貝殼廟,濟公活佛,,,新北市,新北市三芝區二坪頂69號,道教,補辦登記,02-26367002,謝榮壽,,121.539703369141,25.2384395599365
1752300,北海聖雲宮,天上聖母,,,新北市,新北市三芝區福德里埔尾1之2號,道教,補辦登記,02-26362861,江宗柏,,121.499603271484,25.2482299804688
1752325,北城慈雲堂,正一天師,,,新北市,新北市三峽區安坑63之2號,道教,補辦登記,02-26726989,林信,,121.474403381348,24.927619934082
1752326,台北市文昌宮,文昌帝君,,,臺北市,臺北市中山區集英里民生西路45巷9號,道教,正式登記,02-25210366,黃忠慶,,121.520896911621,25.0572891235352
1752329,永昌宮,神農大帝,,,桃園市,桃園市大溪區南興里11鄰仁和路二段190巷27號,道教,正式登記,03-3806459,徐福全,,121.26490020752,24.9044094085693
1752332,上乘靜修精舍,釋迦牟尼佛,,,新北市,新北市八里區長坑里楓林坑8號,佛教,補辦登記,02-26104545,簡寬義,,121.381698608398,25.1328792572021
1752333,海龍宮,普庵祖師,,,新北市,新北市五股區德音里成泰路1段189巷臨41號,道教,補辦登記,02-22932276,陳淑娟,,121.42790222168,25.0755405426025
1752334,彌勒佛殿,明明上帝,,,桃園市,桃園市八德區廣福路669之17號,一貫道,補辦登記,03-3660485,林豐凡,,121.283340454102,24.9596843719482
1752341,鳳蓮宮,普庵祖師,,,新竹縣,新竹縣新豐鄉山崎村建興路一段51巷58號,佛教,正式登記,03-5595689,何啟霖,,120.994567871094,24.8719387054443
1752342,福明宮,三官大帝,,,桃園市,桃園市平鎮區雙連里雙福路2段2號,道教,正式登記,03-4900569,劉興村,,121.185066223145,24.9658660888672
1752369,慈法禪寺,釋迦牟尼佛,,,新北市,新北市土城區廣福里學府路一段23巷21號6樓(暫厝),佛教,補辦登記,02-22612276,徐明輝,,121.458099365234,24.9871292114258
1752386,大仙廟,仙公,,,新竹縣,新竹縣北埔鄉水磜村7鄰水磜子42號,道教,補辦登記,03-5803031,林永源,,121.056251525879,24.710428237915
1752400,台北文山興安宮,福德正神,,,臺北市,臺北市文山區仙岩路16巷64號,道教,補辦登記,02-86632817,賴榮富,,121.550201416016,24.9963798522949
1752403,竹月寺,普庵祖師,,,臺北市,臺北市內湖區環山路2段50巷14弄臨14之7號,佛教,補辦登記,02-27979284,陳雪慧,,121.571601867676,25.0897903442383
1752407,福德宮,福德正神,,,基隆市,基隆市七堵區瑪東里大同街31號之1,道教,補辦登記,02-24565997,李簡樹,,121.695220947266,25.1263427734375
1752452,和衷宮,朱府王爺,,,新北市,新北市淡水區草東里公明街56巷1號,道教,補辦登記,02-26264155,黃逢晚,,121.443496704102,25.1683597564697
1752455,上天福安宮,福德正神,,,新北市,新北市瑞芳區上天里滴水子路29號,道教,補辦登記,02-24578822,林其鋒,,121.772399902344,25.0816593170166
1752466,境福宮,福德正神,,,新竹市,新竹市香山區南隘里8鄰南隘路二段151巷27號,道教,正式登記,03-5371309,邱坤源,,120.936752319336,24.7306213378906
1752523,隆聖宮,關聖帝君,,,新竹縣,新竹縣峨眉鄉富興村2鄰忠義街16號,道教,正式登記,03-5806902,黎傳炳,,120.988578796387,24.6886806488037
1752527,萬佛禪寺,釋迦牟尼佛,,,新竹市,新竹市東區東山里1鄰寶山路151號,佛教,正式登記,03-5222474,徐月娥,,120.976409912109,24.7911319732666
1752529,永平寺,釋迦牟尼佛,,,新北市,新北市三芝區興華里車埕79號,佛教,正式登記,02-26372889,林妙貞,,121.496299743652,25.200740814209
1752547,陀靈寺,地藏王菩薩,,,新北市,新北市五股區集福里7鄰孝義路48號,佛教,補辦登記,02-22913816,葉雲丙,,121.454597473145,25.1105995178223
1752575,財團法人台北市松山寺,釋迦牟尼佛,,,臺北市,臺北市信義區雙和里吳興街284巷17之1號,佛教,正式登記,02-27384304,吳懿貞,,121.569000244141,25.023380279541
1752581,雲義山帝君廟,關聖帝君,,,基隆市,基隆市七堵區自強路45-2號,道教,補辦登記,02-24555522,蔡明德,,121.705497741699,25.1105804443359
1752583,埤仔頭福德宮,福德正神,,,新北市,新北市中和區外南里南山路236之1號,道教,正式登記,02-89410077,游塗容,,121.506401062012,24.9894008636475
1752584,中和九玄宮,玄天上帝,,,新北市,新北市中和區新南里景平路493巷12弄臨16號,道教,補辦登記,02-22454912,葉承祐,,121.499397277832,24.9974594116211
1752590,千佛山華德禪寺,燃燈佛,釋迦牟尼佛,彌勒佛,新北市,新北市三峽區溪南里介壽路二段138巷1弄166號,佛教,補辦登記,02-86768953,蘇敏月,,121.403198242188,24.9274291992188
1752596,東興宮,開漳聖王,,,桃園市,桃園市大溪區新峰里復興路2段758巷45號,道教,正式登記,03-3825576,姚俊雄,,121.318496704102,24.8295001983643
1752598,八里慈惠堂,瑤池金母,,,新北市,新北市八里區龍形一街33巷17號(暫厝),道教,補辦登記,02-26182555,蔡萬得,,121.449501037598,25.1293792724609
1752599,台北縣八里鄉竹龍廟,玉皇大帝,,,新北市,新北市八里區大崁里3鄰20號,道教,正式登記,02-26103645,張金蓮,,121.42310333252,25.1590919494629
1752602,青雲宮,神農大帝,,,臺北市,臺北市大同區民權西路160巷30弄7號,道教,正式登記,02-25571606,張袖傑,,121.515800476074,25.0613193511963
1752604,台北市內湖區碧霞宮,玉皇三公主娘娘,,,臺北市,臺北市內湖區碧山路29號,道教,補辦登記,02-27904630,易輝聰,,121.58869934082,25.0940895080566
1752625,真聖堂,孚佑帝君,,,臺北市,臺北市大同區延平北路2段61巷16號,佛教,正式登記,02-25568206,張謝惠芳,,121.512100219727,25.055477142334
1752636,漁澳順天宮,天上聖母,,,新北市,新北市萬里區龜吼里漁澳路4號,道教,補辦登記,02-24922089,陳國龍,,121.683601379395,25.1898403167725
1752681,菩提講堂,釋迦牟尼佛,,,臺北市,臺北市大同區建泰里南京西路18巷4弄2號,佛教,正式登記,02-25585736,陳氷痕,,121.52010345459,25.0522594451904
1752694,大普義福德宮,福德正神,,,桃園市,桃園市中壢區普義149號邊,道教,補辦登記,03-4615470,管正光,,121.240303039551,24.9649868011475
1752703,五股順天府,池府王爺,,,新北市,新北市五股區集賢里凌雲路二段62號之5,道教,補辦登記,02-22918751,陳勝源,,121.442199707031,25.1051502227783
1752787,保民殿,神農大帝,,,新北市,新北市雙溪區魚行里魚杭1號,道教,正式登記,02-24931749,曹拯民,,121.880447387695,25.026611328125
1752790,慈明寺,濟公活佛,,,基隆市,基隆市暖暖區過港路10巷353號,佛教,正式登記,02-24576783,釋見羹,,121.742652893066,25.1062316894531
1752817,南昌宮,王爺,,,新竹縣,新竹縣北埔鄉南埔村2鄰17號,道教,正式登記,03-5802076,蕭宗芳,,121.041778564453,24.6970119476318
1752837,通淮宮,關聖帝君,,,基隆市,基隆市中山區西定路104巷68號,道教,正式登記,02-24235722,陳黃富美,,121.735496520996,25.1346092224121
1752844,興元宮,三官大帝,,,桃園市,桃園市中壢區龍岡龍興里龍岡路三段37巷92弄102之1號,道教,補辦登記,03-4583276 / 4583282,吳嘉和,,121.232902526855,24.9393672943115
1752846,上清宮,無極聖祖,,,臺北市,臺北市北投區大屯里復興三路230巷29號,道教,正式登記,02-28932307,黃大承,,121.505096435547,25.1524600982666
1752847,五堵福興宮,福德正神,,,新北市,新北市汐止區長安里長安路62號之1,道教,補辦登記,02-86476127,魏平欽,,121.668899536133,25.0783100128174
1752849,覺圓寺,釋迦牟尼佛,,,新北市,新北市新店區廣興里成功路43號,佛教,補辦登記,02-26668862,釋體相,,121.540901184082,24.8993091583252
1752850,濟公慈航寺,濟公活佛,,,新北市,新北市新店區銀河路86號,佛教,補辦登記,02-22171069,洪和睦,,121.580596923828,24.9596500396729
1752854,金海禪寺,釋迦牟尼佛,,,新北市,新北市萬里區磺潭里公館崙35之1號,佛教,補辦登記,02-24983705,李志亮,,121.635299682617,25.2112808227539
1752861,福德宮,福德正神,,,桃園市,桃園市新屋區笨港里6鄰29-2號,道教,補辦登記,-0932281450,李煖,,121.023933410645,24.9704132080078
1752864,正覺寺,釋迦牟尼佛,,,新北市,新北市萬里區雙興里達天13之1號,佛教,補辦登記,02-24929033,邱鴻光,,121.63289642334,25.1836204528809
1752865,金山財神廟,龍德星君,,,新北市,新北市萬里區公館崙52之2號,道教,補辦登記,02-24081190,郭義彥,,121.654899597168,25.2119102478027
1752870,龍天宮,神農大帝,,,新竹縣,新竹縣新埔鎮南平里南平路100巷27號,道教,正式登記,03-0937539791,張泉霖,,121.05729675293,24.8374805450439
1752873,劍童廟,劍童公,,,臺北市,臺北市松山區復勢里八德路3段199巷1號,道教,正式登記,02-25791605,林水永,,121.553733825684,25.0476627349854
1752903,大靈宮,開漳聖王,,,基隆市,基隆市安樂區基金二路3巷17之3號,道教,補辦登記,-0921934298,陳得麟,,121.701538085938,25.1437702178955
1752905,靈巖寺,普庵祖師,,,新北市,新北市平溪區嶺腳里嶺腳寮104號,佛教,補辦登記,02-24951887,林瑞祺,,121.744400024414,25.0433692932129
1752941,慈光山人乘寺幸福講堂,釋迦牟尼佛,,,新竹市,新竹市東區水源里16鄰太原路368之1號,佛教,補辦登記,03-5726795,李文達,,120.993988037109,24.8138866424561
1752943,北海濟世宮,天上聖母,,,新北市,新北市三芝區店子里店子37之3號,道教,補辦登記,02-26372307,周義雄,,121.505798339844,25.2049293518066
1752944,印心寺,釋迦牟尼佛,,,桃園市,桃園市大溪區信義路729號,佛教,補辦登記,03-3885519,江芷蓮,,121.31111907959,24.8961277008057
1752953,龍興宮,四府將軍,,,新北市,新北市平溪區十分里十分街312號,道教,補辦登記,02-24958766,胡維華,,121.775497436523,25.0436496734619
1752955,台北市北投至妙寺,釋迦牟尼佛,,,臺北市,臺北市北投區泉源里東昇路117之2號,佛教,正式登記,02-28925642,吳夢儀,,121.530403137207,25.1482200622559
1752962,台北市大安區福安宮,福德正神,,,臺北市,臺北市大安區虎嘯里臥龍街61號,道教,正式登記,02-27320830,陳黃綉貝,,121.547477722168,25.0221042633057
1752972,十方禪林,釋迦牟尼佛,,,新竹縣,新竹縣峨眉鄉湖光村8鄰14寮6-3號,佛教,正式登記,03-5806276,釋宏善,,120.988296508789,24.67991065979
1752976,壹同寺,釋迦牟尼佛,,,新竹市,新竹市東區柴橋里1鄰明湖路365巷1號,佛教,正式登記,03-5204367,姚玉雀,,120.967498779297,24.7779369354248
1752977,真福地福德宮,福德正神,,,新竹市,新竹市東區復興里三民路135號,道教,正式登記,098-8968578,呂惟源,,120.979301452637,24.8106594085693
1752978,新竹關帝廟(三級古蹟),關聖帝君,,,新竹市,新竹市東區關帝里9鄰南門街109之1號,道教,正式登記,03-5221339,江雲水,,120.966758728027,24.8025169372559
1752983,崑崙七星殿,玉皇大帝,,,新竹縣,新竹縣關西鎮東山里7鄰湖肚20號,道教,正式登記,03-5872150,游崑崙,,121.189399719238,24.7885704040527
1752986,德厚宮,福德正神,,,基隆市,基隆市仁愛區龍安街198巷105號,道教,正式登記,02-24242149,張春淋(暫代),,121.740158081055,25.1229400634766
1752991,淨蓮寺,釋迦牟尼佛,,,桃園市,桃園市大園區和平西路115號,佛教,正式登記,03-3862341,劉炳妹,,121.196800231934,25.0568675994873
1752992,乾元宮,三府王爺,,,桃園市,桃園市大園區北港村3鄰17號,道教,補辦登記,03-4838279,劉英藏,,121.15648651123,25.0661277770996
1752998,三教山清靈宮,太上老君,,,臺北市,臺北市內湖區內溝里康樂街236之6號,道教,補辦登記,02-26313431,賈中孚,,121.622398376465,25.087869644165
1753002,小基隆福成宮,天上聖母,,,新北市,新北市三芝區中山路一段38號,道教,補辦登記,02-26362076,李德爐,,121.501403808594,25.257080078125
1753003,三芝玉仙宮,註生娘娘,,,新北市,新北市三芝區後厝里番仔崙12號之5,道教,補辦登記,02-26368298,林金財,,121.488800048828,25.2370491027832
1753006,道行宮,天上聖母,,,新北市,新北市中和區清穗里華安街17巷2號之5,道教,補辦登記,02-29612495,王瑞定,,121.466796875,24.9981594085693
1753010,安樂區樂一路福德廟,福德正神,,,基隆市,基隆市安樂區樂一路28巷2號,道教,補辦登記,02-24250657,曾兆銘,,121.734596252441,25.1316604614258
1753017,寶藏巖,普庵祖師,,,臺北市,臺北市中正區水源里汀州路3段230巷23號,佛教,正式登記,02-23675713,林忠輝,,121.533142089844,25.010461807251
1753018,五股佑明宮,廣澤尊王,,,新北市,新北市五股區德泰里成泰路一段7巷26弄臨1號,道教,補辦登記,02-29097716,高秋梅,,121.433097839355,25.0672607421875
1753028,竟南宮,孚佑帝君,,,新北市,新北市中和區內南里興南路二段399巷136號,道教,補辦登記,02-29413926,林銘傑,,121.500602722168,24.9736099243164
1753088,靈隱寺,釋迦牟尼佛,,,新竹市,新竹市東區柴橋里6鄰明湖路1135號,佛教,正式登記,03-5202880,卓來金,,120.967628479004,24.7746143341064
1753093,太元宮,三官大帝,,,新竹縣,新竹縣關西鎮玉山里2鄰赤柯山12號,道教,正式登記,03-5476089,蕭慶帝,,121.206825256348,24.7596988677979
1753129,龍台宮,玄天上帝,,,新竹市,新竹市東區光復里3鄰東明街133號,道教,正式登記,03-5719341,侯宗憲,,120.987915039063,24.8040065765381
1753133,東平宮,三官大帝,,,新竹縣,新竹縣關西鎮東平里5鄰大旱坑34號,道教,正式登記,03-5475229,李常棟,,121.117797851563,24.8262004852295
1753136,福安宮,福德正神,,,新北市,新北市坪林區上德里8鄰大粗坑8號旁,道教,補辦登記,02-26656946,翁萬,,121.724975585938,24.9477348327637
1753159,財團法人台北市東和禪寺,釋迦牟尼佛,,,臺北市,臺北市中正區東門里仁愛路1段21-33號,佛教,正式登記,02-23934598/23517887,釋修慧,,121.522560119629,25.0394515991211
1753160,財團法人台北市北投區靈山大慈寺,釋迦牟尼佛,,,臺北市,臺北市北投區泉源里登山路85號,佛教,正式登記,02-28916795,邱慧君,,121.515701293945,25.1500797271729
1753162,財團法人台北保安宮,保生大帝,,,臺北市,臺北市大同區保安里哈密街61號,道教,正式登記,02-25951676,廖武治,,121.515296936035,25.0735301971436
1753164,夏教養聖堂,三一教主,,,臺北市,臺北市大安區民輝里建國南路1段44巷7號,三一(夏)教,補辦登記,02-27413631,郭源錕,,121.536796569824,25.0369091033936
1753172,裕昌宮,福德正神,,,新北市,新北市五股區德音里成泰路一段235號,道教,補辦登記,02-22925675,池金益,,121.436302185059,25.0799102783203
1753173,凌奉宮,中壇元帥,,,新北市,新北市五股區集賢里凌雲路2段27號,道教,補辦登記,02-22913365,陳進興,,121.44059753418,25.1021099090576
1753174,聖王宮,開漳聖王,,,桃園市,桃園市八德區義勇街8號,道教,補辦登記,03-3776411,尤金源,,121.301086425781,24.9639453887939
1753183,車埕三清殿,三清道祖,,,新北市,新北市三芝區興華里車埕62號,道教,補辦登記,02-26371408,蘇麗娟,,121.499000549316,25.1967296600342
1753184,頂圳福德宮,福德正神,,,基隆市,基隆市七堵區工建西路32號,道教,補辦登記,02-24515836,蕭寶宴,,121.703598022461,25.0925006866455
1753192,百騏宮,普庵祖師,,,新北市,新北市平溪區東勢里東勢格1之1號,道教,補辦登記,02-24951388,陳福成,,121.749702453613,25.0051097869873
1753198,凌雲寺,普庵祖師,,,新北市,新北市五股區觀音里凌雲路3段57號,佛教,補辦登記,02-22912942,楊國志,,121.425300598145,25.125509262085
1753206,湧光禪寺,釋迦牟尼佛,,,桃園市,桃園市平鎮區湧光里27鄰湧光路136巷159號,佛教,正式登記,03-4194118,釋淨德,,121.206146240234,24.8938617706299
1753214,崑崙道堂,無極聖祖,,,新北市,新北市五股區成泰路2段147巷9之1號,道教,正式登記,02-29898622,林樹傳,,121.439056396484,25.0861873626709
1753234,信義福德祠,福德正神,,,桃園市,桃園市平鎮區北貴里1鄰正義路126號,道教,正式登記,03-4594336,劉忠義,,121.224090576172,24.9299564361572
1753241,三學蘭若,準提菩薩,,,新竹縣,新竹縣峨眉鄉湖光村12鄰12寮6-6號,佛教,補辦登記,037-602820,羅金田,,120.997200012207,24.6690807342529
1753250,種福堂,普庵祖師,,,新竹縣,新竹縣寶山鄉山湖村山湖路8號,佛教,正式登記,03-5761172,朱漢光,,121.049346923828,24.7544708251953
1753251,寶斗仁福德宮,福德正神,,,新竹縣,新竹縣寶山鄉寶斗村寶斗路17巷8號,道教,補辦登記,03-0000000,蘇立興,,120.951377868652,24.7285270690918
1753266,仁光寺,釋迦牟尼佛,,,新竹市,新竹市東區高峰里12鄰高峰路121號,佛教,正式登記,03-5223301,紀長青,,120.974212646484,24.7914428710938
1753267,開天宮,磐古聖帝,,,新竹市,新竹市東區光鎮里12鄰高峰路110巷7號,道教,正式登記,03-5617782,吳秋男,,120.973701477051,24.7915496826172
1753268,佛光山法寶寺,釋迦牟尼佛,,,新竹市,新竹市東區三民里13鄰民族路241巷1號,佛教,正式登記,03-5427995,劉憶靜,,120.981056213379,24.8107662200928
1753272,金錦山義民廟,粵東褒忠義民神位,,,新竹縣,新竹縣關西鎮金山里12鄰127號,道教,正式登記,03-5478256,徐聰明,,121.22435760498,24.7677021026611
1753301,新北市五股區聚福宮,福德正神,,,新北市,新北市五股區成泰里御史路134號,道教,補辦登記,02-22933865,吳國全,,121.435203552246,25.0984592437744
1753311,九龍蓮社,釋迦牟尼佛,,,臺北市,臺北市大安區德安里四維路52巷1之1及3號,佛教,正式登記,02-27085973、27018152,廖文招,,121.547676086426,25.0310897827148
1753367,峰碧山圓覺寺,釋迦牟尼佛,,,臺北市,臺北市內湖區碧山路39號,佛教,正式登記,02-27909868,劉金蟬,,121.590797424316,25.0976505279541
1753370,慈雲寺,普庵祖師,,,新北市,新北市三芝區興華里7鄰楓子林47之1號,佛教,補辦登記,02-26371765,盧義鑑,,121.501800537109,25.2066707611084
1753380,金剛寺,釋迦牟尼佛,,,新竹縣,新竹縣北埔鄉南埔村4鄰37號,佛教,正式登記,03-5803319,廖秀娘,,121.044021606445,24.6927642822266
1753450,明天宮,關聖帝君,,,新北市,新北市雙溪區中山路41巷7號,道教,正式登記,02-24931138,李臻芳,,121.865913391113,25.0319232940674
1753490,福德宮,福德正神,,,新北市,新北市坪林區上德里3鄰林梅嶺11號旁,道教,補辦登記,02-26656523,蕭清波,,121.696952819824,24.9553813934326
1753499,太陽宮,太陽星君,,,新北市,新北市淡水區義山里下圭柔山106號,道教,補辦登記,02-26228889,張忠雄,,121.443298339844,25.2095508575439
1753502,台北天后宮,天上聖母,,,臺北市,臺北市萬華區西門里成都路51號,道教,正式登記,02-23310421,黃秀福,,121.506301879883,25.042760848999
1753503,巖清寺,釋迦牟尼佛,,,臺北市,臺北市萬華區銘德里環河南路3段203號,佛教,正式登記,02-23058490,林恆志,,121.492202758789,25.0216407775879
1753506,金剛禪寺,釋迦牟尼佛,觀世音菩薩,,桃園市,桃園市桃園區永安路1369巷31號,佛教,正式登記,03-2150051,釋會宗,,121.27522277832,25.0110740661621
1753507,鴻撫宮,廣澤尊王,,,桃園市,桃園市桃園區鴻撫街6號,道教,正式登記,03-3698361,劉文傑,,121.264289855957,24.9737567901611
1753509,龍鎮宮,福德正神,,,新北市,新北市瑞芳區逢甲路38之1號,道教,補辦登記,09-20603026,林文義,,121.811141967773,25.1084156036377
1753510,金山寺,釋迦牟尼佛,,,新北市,新北市瑞芳區頌德里汽車路142號,佛教,正式登記,02-24972994,溫敏琴,,121.838600158691,25.1110591888428
1753547,新莊擎天府,五府千歲,,,新北市,新北市新莊區丹鳳里壽山路55之1號,道教,補辦登記,02-29051129,羅育龍,,121.412200927734,25.0314998626709
1753548,新莊福德祠,福德正神,,,新北市,新北市新莊區文德里新莊路207號,道教,正式登記,02-29929884,陳圓光,,121.455497741699,25.0356597900391
1753596,東窯太子宮,三太子,,,新竹市,新竹市香山區東香里柴橋路256巷1號,道教,補辦登記,03-5202616,王文魁,,120.962959289551,24.7660732269287
1753599,蓮華寺,釋迦牟尼佛,,,新北市,新北市三芝區圓山里大水堀32號,佛教,補辦登記,02-26371468,魏賜寬,,121.511001586914,25.2153606414795
1753605,圓光寺,釋迦牟尼佛,,,桃園市,桃園市中壢區聖德路1段888巷11號,佛教,正式登記,03-4256168,邱榮翰,,121.194602966309,25.0020904541016
1753608, 保福西王母總廟(原文昌廟),文昌帝君,,,新竹縣,新竹縣北埔鄉外坪村8鄰六股22號,道教,補辦登記,03-5802704,吳文發,,121.086502075195,24.6473197937012
1753614,仙台山五股北極殿,玄天上帝,,,新北市,新北市五股區五龍里民義路2段37之6號,道教,補辦登記,02-22910942,施勝雄,,121.413101196289,25.1004390716553
1753621,台北靈巖山寺林口竹林別院,阿彌陀佛,,,新北市,新北市林口區菁湖里竹林路326巷22弄12號,佛教,補辦登記,02-27547178,林正道,,121.391799926758,25.0820407867432
1753695,靈惠廟,靖惠侯敦仁公,,,基隆市,基隆市七堵區東新街6巷24之1號,道教,補辦登記,02-24566226,詹清南,,121.716499328613,25.0904903411865
1753724,財團法人台灣省新竹縣竹東惠昌宮,三山國王,,,新竹縣,新竹縣竹東鎮東寧路三段67號,道教,正式登記,03-5103322,彭錫源,,121.087097167969,24.738109588623
1753726,財團法人台北市放生念佛會,釋迦牟尼佛,,,臺北市,臺北市松山區吉仁里延吉街33號,佛教,正式登記,02-25776463,念禎祥,,121.5537109375,25.0458793640137
1753727,財團法人陽明山五福宮,福德正神,,,臺北市,臺北市北投區永和里行義路1號,道教,正式登記,02-28725833,何正華,,121.525802612305,25.1240501403809
1753728,財團法人新北市八里大眾廟,大眾爺,,,新北市,新北市八里區龍米路二段200巷5號,道教,正式登記,02-26108500,柯慶長,,121.433799743652,25.1589508056641
1753729,財團法人天帝教,玉皇大帝,,,新北市,新北市新店區北新路二段153號,天帝教,正式登記,049-2898446,陳文華,,121.542701721191,24.9760398864746
1753730,財團法人通化堂,太上老君,,,臺北市,臺北市大安區群賢里復興南路2段179號4樓,一貫道,正式登記,02-27012440,陳登材,,121.543678283691,25.026948928833
1753749,法嚴寺,釋迦牟尼佛,,,基隆市,基隆市七堵區東新街65巷48號,佛教,正式登記,02-24562057,吳強台,,121.721603393555,25.0968608856201
1753755,三峽廣靈廟,三山國王,,,新北市,新北市三峽區安坑里安坑27之2號,道教,補辦登記,02-26682380,張金村,,121.445999145508,24.9283294677734
1753756,三峽鎮溪墘寮福隆宮,福德正神,,,新北市,新北市三峽區大埔路34號,佛教,補辦登記,02-26712471,鍾仁生,,121.365875244141,24.9088401794434
1753757,鎮安宮,蕭府王爺,,,臺北市,臺北市中山區金泰里基湖路151巷46弄6號,道教,正式登記,02-25327096,謝明達,,121.564796447754,25.077169418335
1753765,朝聖宮,軒轅黃帝,,,新北市,新北市五股區五股里民義路1段115號,道教,補辦登記,02-22921533,周揚品,,121.435997009277,25.0847206115723
1753766,顯明宮,關聖帝君,,,新北市,新北市三重區仁興街33巷3號,道教,補辦登記,02-29733281,林福來,,121.499298095703,25.0754508972168
1753767,普庵宮,普庵祖師,,,新北市,新北市三重區光明路32巷16號,佛教,正式登記,02-29780373,梁進益,,121.491798400879,25.0586605072021
1753779,永福岩,清水祖師,,,新北市,新北市土城區頂埔里中央路4段65號,佛教,補辦登記,02-22681013,廖德一,,121.417503356934,24.9581508636475
1753781,長壽山元亨寺,普庵祖師,,,新北市,新北市三峽區溪北里介壽路3段208號,佛教,補辦登記,02-26713515,廖年吉,,121.405403137207,24.9452705383301
1753782,禪光寺,阿彌陀佛,,,新北市,新北市三峽區嘉添里白雞路177之1號,佛教,補辦登記,02-26731239,釋見禪,,121.403701782227,24.9044990539551
1753814,養德禪寺,釋迦牟尼佛,,,新竹市,新竹市東區南大里11鄰西大路11巷12號,佛教,正式登記,03-5227412,釋如音,,120.972312927246,24.7940254211426
1753818,元和宮,三官大帝,,,新竹縣,新竹縣關西鎮上林里14鄰坪林49號,道教,正式登記,03-5868892,范光建,,121.135643005371,24.8035144805908
1753853,廣承岩,釋迦牟尼佛,,,新北市,新北市土城區埤塘里金城路一段78號,佛教,補辦登記,02-22603482,鄧法杰,,121.444297790527,24.9727592468262
1753857,妙光寺,釋迦牟尼佛,,,新北市,新北市三峽區添福里添福195之3號,佛教,補辦登記,-26732409,徐愛珠,,121.387763977051,24.8933048248291
1753939,康福宮,福德正神,,,基隆市,基隆市安樂區安和一街288巷103之4號,道教,補辦登記,02-24312083,陳福助,,121.727012634277,25.1282901763916
1753946,石牌玄帝宮,玄天上帝,,,臺北市,臺北市北投區福興里自強街31巷40號,道教,補辦登記,02-28320118,蘇福賜,,121.513298034668,25.110279083252
1753947,靈法寺,普庵祖師,,,臺北市,臺北市北投區開明里長壽路20號,佛教,正式登記,02-28932060,高玉英,,121.504402160645,25.1428604125977
1753949,五東山慈聖宮,瑤池金母,,,新北市,新北市汐止區東山里內曾路6號,道教,補辦登記,02-26471683,李清強,,121.698402404785,25.0483703613281
1753984,瑪西里仙洞湖福德宮,福德正神,,,基隆市,基隆市七堵區大華三路23號旁,道教,補辦登記,02-24553200,陳金諒,,121.680862426758,25.121021270752
1753986,鎮福宮,福德正神,,,新北市,新北市中和區立人街24之4號,道教,補辦登記,02-29443873,游証揚,,121.518898010254,24.994270324707
1753987,中和行德宮,文昌帝君,,,新北市,新北市中和區內南里興南路二段399巷130之1號,道教,補辦登記,02-29449638,林水中,,121.501098632813,24.9752407073975
1754037,大香山慈音巖,明明上帝,,,新北市,新北市新店區美潭里長春路252號,一貫道,正式登記,02-22174255,林昇樂,,121.560302734375,24.9622001647949
1754071,碧河宮,福德正神,,,新北市,新北市中和區碧河里連城路249號,道教,補辦登記,02-22490677,林義豐,,121.49340057373,24.9969692230225
1754076,萬年宮,普庵祖師,,,新北市,新北市三峽區添福里添福239之3號,道教,補辦登記,02-26717882,鄭財明,,121.380195617676,24.8912467956543
1754079,台北市圓明宮,瑤池金母,,,臺北市,臺北市中山區集英里中山北路2段128巷3之2號,道教,正式登記,02-25610023,鄭琨琪,,121.523399353027,25.0637798309326
1754083,靜修寺,釋迦牟尼佛,,,桃園市,桃園市大溪區一心里29鄰中華路203巷17號,佛教,補辦登記,03-3885264,吳鶴燕,,121.293975830078,24.87939453125
1754201,國王宮,三山國王,,,新竹縣,新竹縣峨眉鄉中盛村3鄰196號,道教,正式登記,03-5800805,楊國瑞,,121.031196594238,24.6923198699951
1754206,法王寺,燃燈佛,釋迦牟尼佛,彌勒佛,新竹市,新竹市東區高峰里4鄰高峰路506巷86號,佛教,正式登記,03-5229074,徐明輝,,120.981300354004,24.7734699249268
1754216,三興宮,三山國王,,,基隆市,基隆市仁愛區獅球路169巷62號,道教,補辦登記,02-24323430,羅興旺,,121.736801147461,25.1223106384277
1754217,慈修宮,關聖帝君,,,基隆市,基隆市仁愛區仁三路3巷13號,道教,補辦登記,02-24229212,簡武助,,121.744842529297,25.1276683807373
1754221,天顯宮,五顯大帝,,,基隆市,基隆市中正區和平街118號,道教,補辦登記,02-24620905,張朝明,,121.769599914551,25.1570796966553
1754222,貴文宮,九府王爺,,,桃園市,桃園市大園區內海里2鄰學府路13號,道教,正式登記,03-3865039,許崇孚,,121.201499938965,25.069429397583
1754224,報恩寺,釋迦牟尼佛,,,臺北市,臺北市士林區福林里中山北路5段102號,佛教,正式登記,02-28812588,謝鈺華,,121.52619934082,25.0851306915283
1754227,法明寺,普庵祖師,,,新北市,新北市中和區積穗里新民街12號,佛教,補辦登記,02-32348202,林源河,,121.482498168945,25.0059700012207
1754232,忠義堂,關聖帝君,,,新北市,新北市三峽區大埔里11鄰大埔路33巷6號與8號中間,道教,補辦登記,02-26711641,黃水連,,121.366302490234,24.9092292785645
1754235,景新宮,福德正神,,,臺北市,臺北市中山區新庄里濱江街6之1號,道教,正式登記,02-25954128,阮曜煌,,121.529197692871,25.0709095001221
1754239,六也堂,普庵祖師,,,桃園市,桃園市大溪區一心里下田心子17號,佛教,正式登記,093-3886150,謝瑞美,,121.28931427002,24.8806781768799
1754242,五福佛山承願寺,準提菩薩,,,新北市,新北市五股區五龍里民義路二段37號之66,佛教,補辦登記,02-22930393,吳明澄,,121.413101196289,25.1004390716553
1754243,嘉天宮,天上聖母,,,新北市,新北市三重區龍濱里河邊北街176巷9-5號,道教,補辦登記,02-29736691,林淵滄,,121.502250671387,25.073844909668
1754245,朝棟里南山福德宮,福德正神,,,基隆市,基隆市仁愛區成功一路113巷84之3號,道教,補辦登記,02-24331308,李淑貞,,121.73518371582,25.127405166626
1754246,佛心觀音巖,普庵祖師,,,基隆市,基隆市仁愛區南榮路463巷22弄4號之1,一貫道,補辦登記,02-24256246,林貴美,,121.750183105469,25.1162166595459
1754257,九龍山上帝公廟,玄天上帝,,,新北市,新北市石碇區光明里碇南路2段松柏崎巷33號,道教,補辦登記,02-26632194,陳春長,,121.677299499512,25.0219306945801
1754264,碧華寺,釋迦牟尼佛,,,新北市,新北市三重區碧華里碧華街236號,佛教,補辦登記,02-28573300,林東瀛,,121.487297058105,25.0825500488281
1754274,福山天惠堂,明明上帝,,,新北市,新北市土城區清化里青雲路486之1號,一貫道,補辦登記,02-22622162,羅銀祥,,121.469398498535,24.9643096923828
1754276,三峽興隆宮媽祖廟,天上聖母,,,新北市,新北市三峽區三峽里民權街50號,道教,補辦登記,02-26715643,陳福生,,121.369598388672,24.9334907531738
1754349,惠和宮,三山國王,,,新竹縣,新竹縣芎林鄉秀湖村10鄰山猪湖95號,道教,正式登記,03-5931491,曾敬丁,,121.109901428223,24.7345695495605
1754352,大願寺,地藏王菩薩,,,新竹縣,新竹縣竹東鎮商華里環山路3號,佛教,正式登記,03-5962670,王金蓮,,121.082939147949,24.7328357696533
1754355,溥濟宮,保生大帝,,,桃園市,桃園市觀音區保生村仁愛路2段417號,道教,正式登記,03-4732378,廖治文,,121.06974029541,25.008113861084
1754357,集順廟,保儀尊王,,,新北市,新北市石碇區石碇里石碇西街9號,道教,正式登記,-0911299862,王萬紫,,121.659103393555,24.9907207489014
1754419,財團法人新北市白象山,釋迦牟尼佛,,,新北市,新北市新店區安忠路57巷5之1號,佛教,正式登記,02-23370233,林永文,,121.513603210449,24.9591693878174
1754420,財團法人金龍院,釋迦牟尼佛,,,臺北市,臺北市內湖區內湖路3段256巷2號,佛教,正式登記,02-27902604,陳義忠,,121.592498779297,25.0844993591309
1754423,財團法人台灣省基隆市福安宮,福德正神,,,基隆市,基隆市中山區復興路1號,道教,正式登記,02-24244670,李正律,,121.72705078125,25.1411113739014
1754424,財團法人台北葫蘆寺,普庵祖師,,,臺北市,臺北市士林區葫蘆里延平北路5段285巷35號,佛教,正式登記,02-28150595,郭江源,,121.510902404785,25.0797996520996
1754426,財團法人台北市善光寺,阿彌陀佛,,,臺北市,臺北市北投區林泉里溫泉路銀光巷20號,佛教,正式登記,02-28912726,吳照明,,121.518898010254,25.1357898712158
1754428,財團法人新北市承天禪寺,釋迦牟尼佛,,,新北市,新北市土城區大安里承天路96號,佛教,正式登記,02-22671789,江朝騰,,121.446296691895,24.9506702423096
1754430,財團法人新北市竹林山觀音寺,普庵祖師,,,新北市,新北市林口區菁湖里竹林路325號,佛教,正式登記,02-26011412,黃火旺,,121.389602661133,25.083740234375
1754434,頂社福德宮,福德正神,,,新北市,新北市萬里區大鵬里頂社44號右側,道教,補辦登記,02-983017,陳福來,,121.656097412109,25.2115802764893
1754437,廣雲宮,玄天上帝,,,基隆市,基隆市七堵區華新二路68號,道教,補辦登記,02-24513355,黃鴻鵬,,121.66463470459,25.1153621673584
1754439,慈安宮,李府王爺,,,新北市,新北市中和區員山路611巷11弄4號,道教,補辦登記,02-22226965,佘福地,,121.477699279785,25.0106430053711
1754451,寶德堂,明明上帝,,,桃園市,桃園市大溪區仁善里埔頂2段527號,一貫道,正式登記,03-3801433,詹葉美雲,,121.281097412109,24.9186000823975
1754457,八德區廣興福德宮,福德正神,,,桃園市,桃園市八德區廣興里新興路342巷120之1號,道教,補辦登記,093-2928232,呂理亮,,121.280540466309,24.9498119354248
1754462,平鎮市鎮安宮,三官大帝,,,桃園市,桃園市平鎮區平鎮里2鄰4號,道教,正式登記,03-4390378,王年發,,121.204193115234,24.9211826324463
1754502,財團法人台北市北投慈后宮,天上聖母,,,臺北市,臺北市北投區清江里清江路169號,道教,正式登記,02-28915323,林正雄,,121.501998901367,25.1282691955566
1754503,財團法人台北市中和堂,釋迦牟尼佛,,,臺北市,臺北市北投區奇岩里奇岩路151號,佛教,正式登記,02-28962162,王祖欽,,121.507102966309,25.1305904388428
1754504,財團法人臺灣省新竹市普天宮,福德正神,,,新竹市,新竹市東區高峰里高峰路306號,道教,正式登記,03-5225287,鄭逸榛,,120.979598999023,24.7821998596191
1754505,財團法人新北市中和廣濟宮,開漳聖王,,,新北市,新北市中和區枋寮里中和路95號,道教,正式登記,02-22499862,游炎川,,121.50129699707,25.0006294250488
1754507,財團法人台灣省新竹縣溪南湖口顯聖宮,天上聖母,,,新竹縣,新竹縣湖口鄉愛勢村7鄰民生街120號,道教,正式登記,03-5992634,黃德億,,121.047996520996,24.902889251709
1754513,林口東湖福德宮,福德正神,,,新北市,新北市林口區仁愛路二段148號之1,道教,補辦登記,02-26017766,王阿喜,,121.38200378418,25.0744304656982
1754517,新龍宮,九天四聖帝,,,新北市,新北市新店區廣明里6鄰中興路1段51號,道教,正式登記,02-29113241,簡游玉珠,,121.539596557617,24.9602603912354
1754519,淡水忠順廟,保儀尊王,,,新北市,新北市淡水區蕃薯里南平19號之3旁,道教,補辦登記,02-26225808,楊淑媖,,121.493598937988,25.2174396514893
1754524,寶光紹興講堂,明明上帝,,,桃園市,桃園市桃園區中埔里永安北路13巷11號,一貫道,補辦登記,03-3023945,陳國泰,,121.291381835938,25.0081367492676
1754527,瑞芳青雲殿,神農大帝,,,新北市,新北市瑞芳區海濱里濱二路30號,道教,正式登記,02-24972694,黃佳玲,,121.841598510742,25.1161308288574
1754528,威遠廟,延平郡王,,,新北市,新北市瑞芳區濂新里明里路7之1號,道教,補辦登記,02-24961936,黃瑞聰,,121.868103027344,25.1203804016113
1754533,淡水福佑宮,天上聖母,,,新北市,新北市淡水區民安里中正路200號,道教,正式登記,02-26211731,謝安棋,,121.439903259277,25.1701698303223
1754535,廣福宮,三山國王,,,新竹縣,新竹縣芎林鄉芎林村1鄰文昌街廣福巷45號,道教,正式登記,03-5923865,彭正章,,121.079803466797,24.7752094268799
1754542,龍安宮,福德正神,,,基隆市,基隆市七堵區華新二路68之1號,道教,補辦登記,02-24563333,黃明輝,,121.665161132813,25.1191501617432
1754544,無極宮,玉皇大帝,,,新北市,新北市中和區興南路三段40巷12號,道教,補辦登記,02-29410011,陳愛娥,,121.496002197266,24.9781494140625
1754545,中和慈惠堂,瑤池金母,,,新北市,新北市中和區員山路11號,道教,補辦登記,02-22235503,蔡錫全,,121.479301452637,24.9803905487061
1754551,顯應清水巖,清水祖師,,,新北市,新北市三峽區嘉添里白雞路126之5號,道教,補辦登記,02-26721453,張炳泉,,121.399421691895,24.9051322937012
1754552,福山巖,孚佑帝君,,,新北市,新北市三峽區中埔里中埔2號,道教,正式登記,02-26712479,陳昭,,121.35669708252,24.9297370910645
1754554,圓山藥師寺,藥師佛,,,臺北市,臺北市中山區中山北路4段1巷1弄6號旁,佛教,補辦登記,02-28858084,呂欽明,,121.528198242188,25.0810203552246
1754558,三元宮,三官大帝,,,桃園市,桃園市大溪區員林里4鄰員林路二段282巷17號,道教,正式登記,03-3907078,許有亮,,121.268699645996,24.8857898712158
1754560,淨覺寺,釋迦牟尼佛,,,新北市,新北市八里區荖阡里荖阡坑路15之40號,佛教,補辦登記,02-26101736,曾宏麟,,121.402099609375,25.1401100158691
1754572,泰安宮,天上聖母,,,臺北市,臺北市大安區潮州街錦華里98巷1、3、5號,道教,補辦登記,02-23949818,楊啟琴,,121.529098510742,25.0285205841064
1754575,明陽慈惠堂,瑤池金母,,,新北市,新北市石碇區永定里大湖格2之1號,道教,補辦登記,02-26638559,黃聰明,,121.704299926758,25.012939453125
1754592,大安晉安宮,福德正神,,,新北市,新北市土城區中央路3段40巷,道教,補辦登記,02-22674612,廖禎祥,,121.435806274414,24.9688243865967
1754594,聖江廟,保儀尊王,,,新北市,新北市淡水區中正路5巷27號,道教,補辦登記,02-26229653,翁松明,,121.442398071289,25.1691207885742
1754600,聖母宮,天上聖母,,,桃園市,桃園市桃園區新埔里南通路10號,道教,補辦登記,03-3569957,許淑女,,121.307403564453,25.0205097198486
1754601,鳳山巖觀音寺,普庵祖師,,,桃園市,桃園市桃園區大有路946巷205號,佛教,補辦登記,03-3252305,楊鑫坤,,121.317596435547,25.0256004333496
1754603,長興宮,福德正神,,,新北市,新北市瑞芳區上天里粗坑口路1巷2之2號,道教,補辦登記,02-24576721,柯寶川,,121.761596679688,25.0959091186523
1754617,松山進安宮,五年千歲,,,臺北市,臺北市信義區永吉里永吉路517巷8弄12-3號,道教,補辦登記,09-33922587,徐富盛,,121.58039855957,25.0465793609619
1754618,財團法人新北市石碇深坑坪林天后宮,天上聖母,,,新北市,新北市石碇區彭山里崩山33之3號,道教,正式登記,02-26632894,顏進毅,,121.676902770996,24.9652805328369
1754623,淡水聖和堂,普庵祖師,,,新北市,新北市淡水區忠寮里大埤頭1之3號,佛教,補辦登記,02-86316409,黃陳美枝,,121.492202758789,25.1950607299805
1754634,龍山寺,普庵祖師,,,新北市,新北市淡水區中山路95巷22號,佛教,正式登記,02-26214866,林志誠,,121.442100524902,25.1700897216797
1754638,榮興福德宮,福德正神,,,新北市,新北市瑞芳區深澳里14鄰建基路2段45號,道教,補辦登記,02-24979798,簡富雄,,121.806678771973,25.133337020874
1754639,保女廟,釋迦牟尼佛,,,新北市,新北市瑞芳區三爪子坑路279之1號,佛教,補辦登記,02-24973438,吳清龍,,121.814399719238,25.1063709259033
1754640,新蓮佛堂,明明上帝,,,新竹縣,新竹縣湖口鄉德盛村21鄰108之16號,一貫道,補辦登記,03-5996087,林金生,,121.028900146484,24.9113807678223
1754685,白沙灣觀航寺,普庵祖師,,,新北市,新北市石門區德茂里下員坑33之1號,道教,補辦登記,02-86352836,孫文章,,121.519599914551,25.2828407287598
1754686,板橋北門福德宮,福德正神,,,新北市,新北市板橋區公館街8號,道教,補辦登記,02-29682939,吳聰榮,,121.456703186035,25.0121307373047
1754714,清海宮,蘇府王爺,,,新北市,新北市三重區民生里民生街38巷4弄5號,道教,補辦登記,02-29863869,朱清發,,121.492401123047,25.0669097900391
1754715,先帝宮,神農大帝,,,新北市,新北市三重區光輝里文化南路65巷13號,道教,補辦登記,02-29739998,張慶村,,121.499702453613,25.0608501434326
1754717,東明寺,釋迦牟尼佛,,,基隆市,基隆市中正區中船路112巷22弄8號,佛教,正式登記,02-24226190,潘枝妹,,121.752197265625,25.1378707885742
1754718,港口大眾爺廟,大眾爺,,,桃園市,桃園市大園區沙崙里1鄰漁港路492號,道教,正式登記,03-3835601,駱文章,,121.230400085449,25.1001205444336
1754720,威靈宮,三府王爺,,,新北市,新北市金山區豐漁里民生路146號,道教,補辦登記,02-24982892,許炳煌,,121.647201538086,25.2235794067383
1754731,道教帝廟金鑾殿,三清道祖,,,新北市,新北市八里區龍源里龍形5街37巷3號之1,道教,補辦登記,02-26185596,邱定國,,121.448661804199,25.1325454711914
1754733,桃園八德天后宮,天上聖母,,,桃園市,桃園市八德區茄苳路865號‎,道教,補辦登記,093-2023098,洪月香,,121.279899597168,24.9673004150391
1754744,大安車層景福宮,福德正神,,,臺北市,臺北市大安區華聲里延吉街77號,道教,正式登記,02-27528693,陳秋財,,121.554000854492,25.0436992645264
1754755,七堵慶濟宮,天上聖母,,,基隆市,基隆市七堵區正明里開元路92號,道教,補辦登記,02-24562872,柯金標,,121.71272277832,25.0959663391113
1754757,聖靈山玉皇宮道元宗,三官大帝,,,新北市,新北市中和區灰瑤里員山路6號之3,道教,補辦登記,02-22219494,蕭哲昌,,121.486801147461,24.9785194396973
1754763,無極瑤池聖殿,玉皇大帝,,,新北市,新北市三峽區安坑里安坑71之1號,道教,補辦登記,02-26681035,廖三柱,,121.456703186035,24.9423828125
1754769,致和寺,釋迦牟尼佛,,,桃園市,桃園市大溪區復興路1段311巷13號,佛教,正式登記,03-3884293,陳義春,,121.295799255371,24.8601303100586
1754770,新北市八里廖添丁廟,關聖帝君,,,新北市,新北市八里區中華路3段2號,道教,補辦登記,02-26102121,施阿貴,,121.396598815918,25.1435508728027
1754771,智光禪寺,釋迦牟尼佛,,,新北市,新北市五股區五龍里民義路二段21號,佛教,正式登記,02-22922069,呂鳳凰,,121.419799804688,25.0967502593994
1754772,蓮雲寺,燃燈佛,釋迦牟尼佛,彌勒佛,新北市,新北市五股區凌雲路二段33號,佛教,補辦登記,02-22920565,吳張敏珠,,121.438102722168,25.1014804840088
1754773,三重奉巡府,蘇府王爺,,,新北市,新北市三重區中正北路317巷16號,道教,補辦登記,02-29839753,蔡岳忠,,121.474998474121,25.072940826416
1754789,慧法禪寺,釋迦牟尼佛,,,新北市,新北市雙溪區平林里6鄰外平林14號後面,佛教,補辦登記,02-24933048,蘇秋土,,121.855850219727,25.0344715118408
1754804,湧泉寺,釋迦牟尼佛,,,臺北市,臺北市士林區臨溪里劍南路211號,佛教,正式登記,02-28411597,釋普緣,,121.55549621582,25.0988998413086
1754805,無極天聖殿,玉皇大帝,,,臺北市,臺北市士林區平等里平菁街95巷47-1號,道教,補辦登記,09-84225922,李秋蓁,,121.58219909668,25.1353797912598
1754810,基隆金斗公廟,萬善爺,,,基隆市,基隆市中山區西定路80巷48之1號,道教,補辦登記,02-24225142,游燦堂,,121.736396789551,25.1332397460938
1754819,屈原宮,水仙尊王,,,臺北市,臺北市北投區洲美里洲美街122號,道教,補辦登記,02-28360256,林天來,,121.505699157715,25.0995597839355
1754820,慈航寺,普庵祖師,,,臺北市,臺北市北投區秀山里中和街456號,佛教,正式登記,02-28913881,釋常禪,,121.496101379395,25.145170211792
1754872,香山福地,福德正神,,,新竹市,新竹市香山區朝山里中華路五段420巷126號13號,道教,補辦登記,03-5383019,鄭成光,,120.915412902832,24.7717895507813
1754922,西方精舍,阿彌陀佛,觀世音菩薩,大勢至菩薩,新北市,新北市五股區集福里成泰路4段44號,佛教,正式登記,02-22911607,林祺福,,121.456100463867,25.1105194091797
1754923,福興宮,天上聖母,,,桃園市,桃園市八德區高城里高城八街46巷12-1號,道教,補辦登記,03-3691666,張添佐,,121.27490234375,24.978609085083
1754927,紅淡山龍珠山福德宮,福德正神,,,基隆市,基隆市仁愛區南榮路231巷35號上方,道教,補辦登記,02-24571596,柯賴秀玉,,121.743919372559,25.1214237213135
1754935,妙光寺,釋迦牟尼佛,,,臺北市,臺北市士林區福林里至善路1段138巷24弄8號,佛教,正式登記,02-28812072,林月代,,121.539596557617,25.0954399108887
1754938,玉泉宮,關聖帝君,,,新北市,新北市汐止區鄉長里長江街287之1號,道教,補辦登記,02-26422138,楊常裕,,121.66480255127,25.0816898345947
1754939,明安寺(廟不在),普庵祖師,,,新北市,新北市汐止區汐平路二段88號之1,佛教,補辦登記,02-26432577,許金發,,121.703071594238,25.0538082122803
1754940,板橋廣厚宮,福德正神,,,新北市,新北市板橋區信義里信義路164之1號,道教,補辦登記,02-29559013,李江秀,,121.459297180176,24.991340637207
1754948,靈山宮,福德正神,,,基隆市,基隆市信義區壽山路12之3號,道教,補辦登記,02-24280183,簡許泉(暫代),,121.75611114502,25.133731842041
1754952,法王寺,釋迦牟尼佛,,,基隆市,基隆市仁愛區龍安街198巷4弄17號,佛教,正式登記,02-24226891,黃榮享,,121.74104309082,25.1237564086914
1754954,廣熙宮,正一天師,,,新北市,新北市三重區厚德里後竹圍街60號,道教,補辦登記,02-29816472,林敏毓,,121.490501403809,25.0732097625732
1754957,聖濟宮,齊天大聖,,,基隆市,基隆市中正區中船路112巷30弄95號,道教,正式登記,02-24625639,李昱儒,,121.753997802734,25.1375293731689
1754958,福海宮,輔信王公,,,桃園市,桃園市大園區竹圍里6鄰65號,道教,正式登記,03-3835556,廖德發,,121.242691040039,25.1053485870361
1754959,金山朝天宮,天上聖母,,,新北市,新北市金山區重和里六股林口38之3號,道教,補辦登記,02-24080664,曹正雄,,121.602500915527,25.2180309295654
1754960,慧明禪寺,釋迦牟尼佛,,,新北市,新北市金山區西湖里西勢湖11號,佛教,補辦登記,02-24981786,楊寶秀,,121.611801147461,25.2472190856934
1755052,東澳朝天宮,天上聖母,,,新北市,新北市萬里區野柳里東澳26號之1,道教,補辦登記,02-24927805,陳益裕,,121.691299438477,25.2032909393311
1755082,松山聚福廟,福德正神,,,臺北市,臺北市松山區慈祐里八德路4段490號,道教,補辦登記,02-26093239,許青田,,121.570297241211,25.0496406555176
1755103,大覺禪寺,釋迦牟尼佛,,,新北市,新北市泰山區同榮里吳厝窠1號,佛教,補辦登記,02-29098626,陳郁瑩,,121.428001403809,25.0584907531738
1755105,東安宮,天上聖母,,,基隆市,基隆市暖暖區東勢街203號,道教,補辦登記,02-24591582,林嘉萬,,121.75479888916,25.0775909423828
1755113,師善堂,普庵祖師,,,新竹縣,新竹縣竹東鎮員崠里東峰路588巷42號,佛教,正式登記,03-5966027,薩世安,,121.097076416016,24.7148151397705
1755117,佛濟寺,普庵祖師,,,新北市,新北市石碇區二格路9號,佛教,補辦登記,02-26631729,陳委禎,,121.625297546387,24.9630508422852
1755118,法濟寺,釋迦牟尼佛,,,新北市,新北市石碇區隆盛里吊橋2號,佛教,補辦登記,02-26631898,蔡並修,,121.66089630127,25.005500793457
1755119,聖興宮,保儀尊王,,,新北市,新北市石碇區永定里大湖格23號,道教,補辦登記,02-26633675,陳國有,,121.698692321777,25.0146656036377
1755121,汐止巧聖仙師廟,魯班公,,,新北市,新北市汐止區自強里環山路5號之1,道教,補辦登記,02-26439950,楊参傳,,121.657699584961,25.0599708557129
1755122,板橋江子翠潮和宮,三官大帝,,,新北市,新北市板橋區江翠里吳鳳路50巷93號,道教,補辦登記,02-22522357,曹正吉,,121.470497131348,25.0305404663086
1755123,新北市板橋區逢元宮,天上聖母,,,新北市,新北市板橋區中山路二段565巷29號(暫厝),道教,補辦登記,02-29510964,林保東,,121.484901428223,25.0227699279785
1755126,佛山寺,釋迦牟尼佛,,,新北市,新北市三峽區有木里有木87號,佛教,補辦登記,02-26720087,曾國全,,121.447601318359,24.873649597168
1755127,三峽宰樞廟,玄天上帝,,,新北市,新北市三峽區秀川街28號,道教,正式登記,02-26711372,李楷瑞,,121.371803283691,24.9344291687012
1755153,普濟宮,廣澤尊王,,,新北市,新北市汐止區八連里八連路一段198號巷6號,道教,補辦登記,02-26462966,唐玉霞,,121.64469909668,25.0806503295898
1755154,歡子園福德宮,福德正神,,,新北市,新北市板橋區歡園里大觀路一段38巷156弄39號,道教,補辦登記,02-29676059,黃信義,,121.442596435547,25.0059394836426
1755158,無極明聖宮,東華帝君,,,臺北市,臺北市南港區中南里忠孝東路7段478巷臨12號,道教,正式登記,02-27832628,辜翁素雲,,121.609703063965,25.050609588623
1755160,松山奉天宮,玉皇大帝,,,臺北市,臺北市信義區中坡里福德街221巷12號,道教,正式登記,02-27279765,林賢平,,121.584899902344,25.0375099182129
1755161,寶光寺,釋迦牟尼佛,,,基隆市,基隆市信義區深澳坑路125巷7號,佛教,正式登記,02-24650496,陳美英,,121.787643432617,25.1256771087646
1755210,李山神宮,瑤池金母,,,新北市,新北市三峽區插角179號之6,道教,補辦登記,02-26720763,朱順忠,,121.418853759766,24.8852920532227
1755215,福仁宮,開漳聖王,,,桃園市,桃園市大溪區福仁里25鄰和平路100號,道教,正式登記,03-3883261,江朝宗,,121.286567687988,24.885856628418
1755218,新北市八里區大營公廟,清朝末年戰亡官兵,,,新北市,新北市八里區埤頭里挖子尾街152號之1,道教,補辦登記,02-26103123,張光生,,121.412300109863,25.1658000946045
1755219,助順將軍廟,助順將軍,,,新北市,新北市五股區福德里登林路108號,佛教,補辦登記,02-22925016,黃景昌,,121.428298950195,25.0703601837158
1755220,昭安宮,李府王爺,,,新北市,新北市三重區光明里集美街207巷21號,道教,補辦登記,02-29789687,林榮宗,,121.492202758789,25.0540409088135
1755233,台北護國延平宮,延平郡王,,,臺北市,臺北市內湖區金瑞里內湖路3段348巷6號,道教,正式登記,02-27934700,王慶文,,121.592399597168,25.0845909118652
1755242,護天宮,女媧娘娘,,,基隆市,基隆市安樂區崇德路40巷3號,道教,正式登記,02-24226146,賴朝蒼,,121.731819152832,25.1306629180908
1755298,新北市淡水區義山集應廟,保儀尊王,,,新北市,新北市淡水區義山里下圭柔山35之3號,道教,補辦登記,02-26210771,張福氣,,121.449798583984,25.2045402526855
1755302,艋舺龍津宮,順正大王公,,,臺北市,臺北市萬華區菜園里長沙街2段184號,道教,正式登記,02-23117849,林招皇,,121.499702453613,25.0413093566895
1755303,楊聖廟,楊府聖王,,,臺北市,臺北市萬華區保德里東園街154巷39號,道教,正式登記,02-23038228,楊智誠,,121.495796203613,25.0273990631104
1755306,桃園慈護宮,天上聖母,,,桃園市,桃園市桃園區復興路275號,道教,正式登記,03-3321498,吳正宗,,121.306640625,24.988805770874
1755324,天真總壇,明明上帝,,,新北市,新北市樹林區柑園里學勤路333號,一貫道,補辦登記,02-89705116,劉漢卿,,121.380302429199,24.9486103057861
1755325,行德宮,普庵祖師,,,新北市,新北市樹林區佳園路三段181巷17號,道教,補辦登記,02-26684077,陳芳卿,,121.38680267334,24.9479598999023
1755329,新莊集善堂,福德正神,,,新北市,新北市新莊區泰豐里瓊林路32號,道教,補辦登記,02-22023473,胡高爾,,121.449203491211,25.0315799713135
1755330,新莊後港福德宮,福德正神,,,新北市,新北市新莊區南港里後港二路18之1號,道教,補辦登記,02-22025921,林宜樑,,121.422401428223,25.023609161377
1755331,後港慈惠堂,瑤池金母,,,新北市,新北市新莊區瓊林里新樹路113巷33號,道教,補辦登記,02-22026715,李蔡素美,,121.439598083496,25.0265007019043
1755332,新莊福成宮,福德正神,,,新北市,新北市新莊區頭前里頭前路15巷1號,道教,補辦登記,02-89915390,葉健郎,,121.467903137207,25.0521202087402
1755334,甘露寺,釋迦牟尼佛,,,新竹縣,新竹縣竹東鎮五豐里敦睦街47號,佛教,正式登記,03-5955625,釋紹宗,,121.080825805664,24.7445487976074
1755338,崇聖廟,釋迦牟尼佛,,,新北市,新北市石碇區中民里14鄰石碇子埔91號,佛教,正式登記,02-26631721,王許瑞蓮,,121.671180725098,25.0053081512451
1755342,靈光寺,釋迦牟尼佛,,,新北市,新北市板橋區溪崑二街73巷1之1號,佛教,補辦登記,02-26752288,郭佳玲,,121.428100585938,24.9903106689453
1755343,大眾廟,大眾爺,,,新北市,新北市板橋區留侯里西門街69號之1,道教,補辦登記,02-29661198,江清秀,,121.454399108887,25.0090599060059
1755344,板橋玄武宮(已廢止),玄天上帝,,,新北市,新北市板橋區中正路493巷10之2號,道教,補辦登記,02-29669179,劉陳秀花,,121.454200744629,25.0263900756836
1755350,東明瑤池宮,瑤池金母,,,基隆市,基隆市信義區東明路55巷76、78號,道教,補辦登記,02-24653806,劉吳淑芬,,121.763496398926,25.1245193481445
1755391,聖安宮,天上聖母,,,基隆市,基隆市中山區中山三路111巷59號,佛教,正式登記,02-24226237,霜進春,,121.747276306152,25.1434803009033
1755398,中壢市石頭庄地區福德宮,福德正神,,,桃園市,桃園市中壢區東興里龍明街39號,道教,補辦登記,03-4576713,許詩源,,121.223724365234,24.948127746582
1755401,福安宮,福德正神,,,臺北市,臺北市北投區溫泉里公館路85巷2弄2號,道教,正式登記,02-28911456,江正義,,121.505996704102,25.1319103240967
1755402,德明宮,福德正神,,,新北市,新北市汐止區中興里福德一路231號,道教,補辦登記,02-26946231,林山永,,121.634201049805,25.064920425415
1755411,達香寺,釋迦牟尼佛,,,新北市,新北市石碇區豐田里磨石坑33號,佛教,補辦登記,02-23910512,江秋,,121.69270324707,24.9682693481445
1755414,慈航大師開山彌勒內院,釋迦牟尼佛,,,新北市,新北市汐止區秀峰里秀峰路245號,佛教,補辦登記,02-26413405,沈榮興,,121.660202026367,25.063009262085
1755424,鎮安宮,保生大帝,,,新竹市,新竹市東區仙水里10鄰光復路一段525巷27號,道教,正式登記,03-5773669,陳振雄,,121.013511657715,24.7836132049561
1755425,淨士寺,釋迦牟尼佛,,,新竹市,新竹市東區頂竹里3鄰竹蓮街26巷7號,佛教,正式登記,03-0000000,謝月寶,,120.971939086914,24.797830581665
1755429,慈航觀音禪寺,普庵祖師,,,新竹縣,新竹縣關西鎮東平里大東坑61之3號,佛教,補辦登記,03-5475152,林文珠,,121.157447814941,24.8287696838379
1755430,廬山玖龍宮,玉皇大帝,,,新竹縣,新竹縣寶山鄉新城村寶新路二段56巷80號,道教,補辦登記,03-5204264,盧光助,,120.974487304688,24.7472972869873
1755490,新莊地藏庵,地藏王菩薩,,,新北市,新北市新莊區立人里中正路84號,佛教,補辦登記,02-29916678,張永寬,,121.457000732422,25.0371704101563
1755491,平安公廟,福德正神,,,新北市,新北市新莊區思源路177巷32號,道教,補辦登記,02-29921281,連榮富,,121.459396362305,25.0463409423828
1755500,鎮南宮,天上聖母,,,新北市,新北市深坑區阿柔里大崙腳8號,道教,補辦登記,02-26623237,鄭麗玉,,121.612800598145,25.0000991821289
1755546,靈靖宮,詹公聖侯,,,基隆市,基隆市中山區通仁街84巷129之2號,道教,補辦登記,-0955625555,張致宗,,121.7333984375,25.1472492218018
1755547,福慶宮,福德正神,,,基隆市,基隆市安樂區基金三路135之1號,道教,補辦登記,02-24310372,洪森永,,121.697303771973,25.1541309356689
1755548,鶯歌里福德宮,福德正神,,,基隆市,基隆市安樂區麥金路24號,道教,補辦登記,02-24311789,吳進財,,121.72679901123,25.1161708831787
1755555,農禪寺,阿彌陀佛,觀世音菩薩,大勢至菩薩,臺北市,臺北市北投區大度路112號,佛教,正式登記,02-28933161,洪鴻榮,,121.495796203613,25.1226902008057
1755557,金龍山北峰寺,普庵祖師,,,新北市,新北市汐止區湖光里湖前街110巷101號,佛教,補辦登記,02-26958828,陳綿,,121.631301879883,25.0742206573486
1755561,林口贊天宮,天上聖母,,,新北市,新北市林口區東林里自強三街28號,道教,補辦登記,02-26012208,蕭來發,,121.398582458496,25.0768890380859
1755567,鄧公里福德宮,福德正神,,,新北市,新北市淡水區幸福里仁愛街15之5號,道教,補辦登記,02-26213349,王金全,,121.44652557373,25.170503616333
1755576,保元宮,池府王爺,,,新北市,新北市新莊區文明里中正路143號,道教,補辦登記,02-29970002,徐勝男,,121.459602355957,25.0381298065186
1755577,新莊代天府,五府千歲,,,新北市,新北市新莊區化成路557號(暫厝),道教,補辦登記,09-31994135,葉金獅,,121.464797973633,25.0650405883789
1755595,石門妙法寺,普庵祖師,,,新北市,新北市石門區老梅里七股66號,佛教,補辦登記,02-26360722,沈秀蘭,,121.548400878906,25.2500591278076
1755601,新竹市東區福源宮,福德正神,,,新竹市,新竹市東區光復里水源街55巷2之1號,道教,補辦登記,03-5715662,柯銀城,,120.991188049316,24.8008613586426
1755608,彌勒山天道清修院,明明上帝,,,新北市,新北市汐止區白雲里勤進路723號,一貫道,補辦登記,02-26432912,江安平,,121.676528930664,25.0363025665283
1755621,日月大天宮,普庵祖師,,,新北市,新北市石門區石門里內石門67之5號,佛教,補辦登記,02-26380913,廖義春,,121.576202392578,25.2553997039795
1755622,板橋天公廟,玉皇大帝,,,新北市,新北市板橋區香雅里南雅西路二段301巷23號,道教,補辦登記,02-29692765,張慶昌,,121.451698303223,25.0160903930664
1755663,觀音山妙雲寺,普庵祖師,,,新北市,新北市五股區觀音里凌雲路3段73號,佛教,補辦登記,02-22937730,許世瑩,,121.42440032959,25.1216602325439
1755664,福安宮,福德正神,,,新北市,新北市三重區長元里長元街臨82之1號,道教,補辦登記,02-29725712,莊林愛雲,,121.501899719238,25.0664691925049
1755673,文化明正宮,天上聖母,,,新北市,新北市土城區清化里青雲路669之5號,道教,補辦登記,02-22707669,高銓春,,121.46849822998,24.9641799926758
1755675,西蓮淨苑,釋迦牟尼佛,,,新北市,新北市三峽區溪東路211巷31弄11號,佛教,補辦登記,02-86761982,郭敏芳,,121.406196594238,24.9352607727051
1755681,行德慈惠堂,瑤池金母,,,新北市,新北市石碇區潭邊里外按18之3號,道教,補辦登記,02-26633445,林萬塗,,121.64949798584,24.9985809326172
1755684,興善宮,關聖帝君,,,新北市,新北市汐止區長青里長青路1號,道教,補辦登記,02-26451237,王朝卿,,121.609397888184,25.1066608428955
1755685,汐止伍聖宮,五府千歲,,,新北市,新北市汐止區鄉長里鄉長路二段26巷25號之1,道教,補辦登記,02-26415295,王振明,,121.668701171875,25.085090637207
1755686,宏法禪寺,釋迦牟尼佛,,,新北市,新北市板橋區鄉雲里四川路一段232巷1號,佛教,正式登記,02-29615214,陳紗,,121.458999633789,25.001880645752
1755690,金山寺,普庵祖師,,,臺北市,臺北市南港區中南里中南街168巷1號,佛教,正式登記,02-27830342,卓麗珠,,121.615196228027,25.0518493652344
1755693,基深宮,天上聖母,,,基隆市,基隆市信義區深澳坑路170之1號,道教,補辦登記,02-24651433,江金生,,121.784797668457,25.126989364624
1755747,閩南檺林宮,三府王爺,,,基隆市,基隆市仁愛區公園街311號,道教,正式登記,02-24231349,駱振林,,121.738212585449,25.129602432251
1755751,中正慈惠堂,瑤池金母,,,基隆市,基隆市中正區中船路36巷12弄61之2號,道教,補辦登記,02-24279888,鄭世寅,,121.751899719238,25.1340293884277
1755752,基隆市哨船頭福德宮,福德正神,,,基隆市,基隆市中正區正義路100巷37號,道教,補辦登記,02-24691417,范永金,,121.749099731445,25.1354904174805
1755769,菩提山大空精舍,釋迦牟尼佛,,,新北市,新北市石碇區烏塗里9鄰中楒仔腳2之11號,佛教,補辦登記,02-26633781,陳復華,,121.637817382813,24.9731330871582
1755770,佛心山惠光寺,釋迦牟尼佛,,,新北市,新北市石碇區新興坑32號,佛教,補辦登記,02-26631478,陳順隆,,121.648597717285,25.0214691162109
1755788,大行山聖泉寺,釋迦牟尼佛,,,新北市,新北市瑞芳區碩仁里魚寮路206之1號,佛教,補辦登記,02-24974119,葉綺瑩,,121.829475402832,25.060510635376
1755791,太子廟,三太子,,,新北市,新北市淡水區崁頂80之3號,道教,補辦登記,02-28050798,高連旺,,121.429397583008,25.2057800292969
1755838,天罡佛堂,明明上帝,,,桃園市,桃園市平鎮區建安里23鄰東勢155之1號,一貫道,補辦登記,03-4602407,林明海,,121.226013183594,24.9182205200195
1755843,海會庵,阿彌陀佛,,,新竹縣,新竹縣峨眉鄉七星村13鄰6寮54號,佛教,正式登記,03-5800866,陳淑惠,,121.013603210449,24.6434307098389
1755859,梵音寺,釋迦牟尼佛,,,基隆市,基隆市仁愛區延平街79號,佛教,正式登記,02-24222682,羅鳳菊,,121.748611450195,25.124568939209
1755862,洞水宮,諸府千歲,,,新北市,新北市三重區長安里文化北路87巷8號,道教,補辦登記,02-29735856,李宗烈,,121.498497009277,25.0674591064453
1755863,東陵武聖廟,關聖帝君,,,基隆市,基隆市中正區豐稔街65巷10號,道教,補辦登記,02-24621501,謝進忠,,121.761596679688,25.1398906707764
1755864,覺修宮,釋迦牟尼佛,,,基隆市,基隆市中正區義二路224巷1號,佛教,正式登記,02-24222011,林宗仁,,121.748596191406,25.135290145874
1755893,基隆開基老大公廟,老大公,,,基隆市,基隆市安樂區嘉仁里樂一路76巷37號,道教,補辦登記,02-24273596,陳丁寶,,121.733497619629,25.1317501068115
1755894,普陀山通明寺,釋迦牟尼佛,,,基隆市,基隆市安樂區安和一街288巷103之6號,佛教,正式登記,02-24315613,黃麗雪,,121.725898742676,25.1289901733398
1755900,龍岡鴻福宮,福德正神,,,桃園市,桃園市中壢區龍岡路3段582號,道教,補辦登記,03-4502709,江宗邦,,121.24080657959,24.9291000366211
1755904,三清宮,太上老君,,,新北市,新北市新店區廣興里廣興路27巷29號,道教,補辦登記,02-26666760,黃巽英,,121.539398193359,24.9110794067383
1755905,六通寺,釋迦牟尼佛,,,桃園市,桃園市新屋區大坡里5鄰三角崛62-1號,佛教,正式登記,03-4769197,釋性定,,121.040313720703,24.9609222412109
1755908,雙和宮,蘇府王爺,,,新北市,新北市萬里區雙興里太和7之2號,道教,補辦登記,02-24929098,盧碧雲,,121.658798217773,25.1740093231201
1755966,興建宮,劉府王爺,,,新北市,新北市淡水區永吉里4鄰清水街159號,道教,補辦登記,02-26212994,林松,,121.440132141113,25.1719837188721
1755967,法燈蘭若,釋迦牟尼佛,,,新北市,新北市淡水區忠山里水汴頭51號,佛教,補辦登記,02-26234134,程丹,,121.470596313477,25.2021503448486
1755992,埔頂慈雲庵,清水祖師,,,新竹市,新竹市東區埔頂里3鄰埔頂路193號,道教,補辦登記,03-5678033,張淇淋彡,,121.010101318359,24.7944107055664
1755993,新竹忠義府,黃府王爺,,,新竹市,新竹市東區柴橋里柴橋路255巷32號,道教,補辦登記,03-5204626,林榮治,,120.961891174316,24.7605819702148
1756005,福德宮,福德正神,,,基隆市,基隆市暖暖區東勢街101之3號,道教,補辦登記,02-24587587,白建富,,121.750991821289,25.0818901062012
1756018,信義天后宮,天上聖母,,,臺北市,臺北市信義區泰和里吳興街600巷臨68號,道教,補辦登記,02-27239809,鄭新旺,,121.56600189209,25.0263500213623
1756020,福安宮,福德正神,,,新北市,新北市汐止區福安街53之1號,道教,補辦登記,02-26412995,蘇樹木,,121.663696289063,25.0641193389893
1756036,慈光寺,釋迦牟尼佛,,,臺北市,臺北市文山區萬芳里萬芳路26巷5號,佛教,正式登記,02-22302306,黃聖峰,,121.569145202637,24.9953327178955
1756039,板橋慈惠宮,天上聖母,,,新北市,新北市板橋區府中路81號,道教,正式登記,02-29650012,許三郎,,121.457298278809,25.0094604492188
1756074,統天宮,關聖帝君,,,桃園市,桃園市桃園區鎮撫街24巷9號,道教,正式登記,03-3344875,邱垂成,,121.31379699707,24.9974708557129
1756075,天南宮,中壇元帥,,,新北市,新北市深坑區阿柔里大崙尾1號,道教,補辦登記,02-26640119,鄒金福,,121.614799499512,24.974910736084
1756077,龍巖宮,清水祖師,,,新北市,新北市瑞芳區明燈路三段152號,佛教,補辦登記,02-24872807,李葉玉英,,121.803802490234,25.10910987854
1756082,台灣天師宮,正一天師,,,新北市,新北市淡水區沙崙里中正路二段305巷33號,道教,補辦登記,02-28051876,黃永水,,121.425796508789,25.1899890899658
1756112,北投龍雲寺,阿彌陀佛,,,臺北市,臺北市北投區林泉里幽雅路杏林巷3-6號,佛教,補辦登記,02-28965024,郭永進,,121.517997741699,25.1378402709961
1756113,慈聖佛堂,彌勒佛,,,新北市,新北市汐止區長青里八連路三段196號之1,一貫道,補辦登記,02-26452203,陳少宏,,121.616302490234,25.1193904876709
1756122,寶德山大鴻慈惠堂,瑤池金母,,,新北市,新北市石碇區烏塗里9鄰1中楒仔腳之1號,道教,補辦登記,02-26633133,王啟次,,121.645347595215,24.9713611602783
1756125,埔墘福德宮,福德正神,,,新北市,新北市板橋區九如里中山路二段250巷1號,道教,補辦登記,02-29645591,廖榮清,,121.478797912598,25.0177707672119
1756137,福德祠,福德正神,,,新北市,新北市新莊區恆安里11鄰中港路108號,道教,正式登記,02-29924684,陳科名,,121.45539855957,25.0397396087646
1756138,三山國王廟,三山國王,,,新北市,新北市新莊區文德里新莊路150號,道教,正式登記,02-89915474,黃金泉,,121.455200195313,25.0355396270752
1756165,後山坡福德爺廟,福德正神,,,臺北市,臺北市南港區成福里東新街170巷臨1號,道教,補辦登記,02-0921061908,林育蘭,,121.592697143555,25.045919418335
1756166,東興宮,三府王爺,,,新北市,新北市貢寮區福隆里東興街3號,道教,補辦登記,02-24991123,吳憲彰,,121.950401306152,25.0206298828125
1756169,上員山福德宮,福德正神,,,新竹縣,新竹縣竹東鎮上員山53之5號,道教,正式登記,03-5822495,萬鴻發,,121.079200744629,24.7503700256348
1756180,南山福德宮,福德正神,,,新北市,新北市中和區內南里興南路二段399巷160號之1,道教,補辦登記,02-29425277,呂芳煙,,121.498901367188,24.978759765625
1756186,聖龍宮,東華帝君,,,新北市,新北市三峽區竹崙里三層坪路49號,道教,補辦登記,02-26726179,謝清春,,121.445999145508,24.903600692749
1756187,慧悾慈惠堂,瑤池金母,,,新北市,新北市三峽區中埔里鳶峰路150號,道教,補辦登記,02-26710289,陳俊明,,121.362701416016,24.9323806762695
1756188,台北市圓玄學社,釋迦牟尼佛,,,臺北市,臺北市中山區中央里長春路163巷18號,佛教,正式登記,02-25027096,王進宏,,121.526298522949,25.0559101104736
1756189,圓通巖,普庵祖師,,,臺北市,臺北市中山區劍潭里中山北路4段1巷1弄3號,佛教,正式登記,02-28855726,劉玉,,121.528800964355,25.0815296173096
1756193,玉玄宮,玄天上帝,,,桃園市,桃園市大溪區田心里民權東路31巷9弄16號,道教,補辦登記,03-3872348,陳寶印,,121.290237426758,24.883617401123
1756194,八里會堂宮,保生大帝,,,新北市,新北市八里區訊塘里4鄰訊塘埔25號旁,道教,補辦登記,02-,張立時,,121.396522521973,25.1482715606689
1756203,萬里玄武宮,玄天上帝,,,新北市,新北市萬里區雙興里大坪8號,道教,正式登記,02-24929127,吳朝象,,121.63680267334,25.1682395935059
